id,ident,type,name,latitude_deg,longitude_deg,elevation_ft,iso_country,iso_region,municipality
356055,US-7066,medium_airport,Love spells that work Using Powerful Love Spells-call+27685029687,-0.000117,-0.000269,,US,US-KY,
313932,US-0267,closed,Morse Field,18.9163,-155.6773,40,US,US-HI,South Point
336027,US-1592,closed,Kahuku Airstrip,19.067102,-155.682621,,US,US-HI,Naalehu
336026,US-1591,closed,Naalehu Airstrip,19.07604,-155.574528,,US,US-HI,Naalehu
17635,HI25,small_airport,Kaalaiki Airstrip,19.122507,-155.578398,1964,US,US-HI,Naalehu
17637,HI28,small_airport,Pahala Airstrip,19.215392,-155.468559,1195,US,US-HI,Pahala
17638,HI29,closed,Upper Paauau Airport,19.227478,-155.506234,2600,US,US-HI,Pahala
17647,HI52,heliport,Rainshed Heliport,19.433268,-155.25991,4000,US,US-HI,Volcano Village
336025,US-1590,closed,Pahoa Airstrip,19.51612,-154.96268,,US,US-HI,Pahoa
341377,US-3202,heliport,Kona Community Hospital Helipad,19.52057,-155.91694,,US,US-HI,Kealakekua
17633,HI23,small_airport,Mountain View Airstrip,19.546359,-155.108116,1500,US,US-HI,Mountain View
313931,US-0266,closed,Old Kona Airport,19.6448,-156.0114,8,US,US-HI,Kailua-Kona
17626,HI04,heliport,Hilo Medical Center Heliport,19.718464,-155.114422,487,US,US-HI,Hilo
337666,US-2060,closed,Ho'olulu Park Landing Field,19.71873,-155.06912,13,US,US-HI,Hilo
5457,PHTO,medium_airport,Hilo International Airport,19.721399,-155.048004,38,US,US-HI,Hilo
309370,US-0224,small_airport,Pohakuloa Training Area Airstrip,19.726675,-155.524542,,US,US-HI,Waimea (Kamuela)
344633,US-4131,closed,Radio Bay Seaplane Base,19.7344,-155.05567,,US,US-HI,Hilo
5448,PHKO,medium_airport,Ellison Onizuka Kona International Airport at Keahole,19.738783,-156.045603,47,US,US-HI,Kailua-Kona
336038,US-1593,closed,Hilo Bay Seaplane Anchorage,19.741667,-155.066666,0,US,US-HI,Hilo
5456,PHSF,small_airport,Bradshaw Army Airfield,19.760099,-155.554001,6190,US,US-HI,Waimea (Kamuela)
17639,HI31,closed,Mauna Kea-Honolii Airport,19.764024,-155.139525,1400,US,US-HI,Papaikou
17631,HI13,closed,Puu Waa Waa Ranch Airport,19.792041,-155.848041,2250,US,US-HI,Kailua-Kona
336022,US-1587,closed,Kona Village Resort Airport,19.83247,-155.981666,,US,US-HI,Kailua-Kona
6536,00HI,heliport,Kaupulehu Heliport,19.832881,-155.978347,43,US,US-HI,Kailua-Kona
17640,HI32,small_airport,Pepeekeo Airstrip,19.846582,-155.106872,675,US,US-HI,Pepeekeo
17624,HI02,closed,Peleau Airport,19.902201,-155.16601,1088,US,US-HI,Hakalau
325704,US-0764,closed,Waikoloa Air Strip,19.918787,-155.863337,,US,US-HI,Waikoloa Village
17628,HI07,heliport,Waikoloa Heliport,19.920546,-155.860628,119,US,US-HI,Waikoloa Village
325703,US-0763,heliport,South Kohala Fire Station Heliport,19.946485,-155.834506,128,US,US-HI,Waikoloa Village
336024,US-1589,closed,Waipunalei Airstrip,19.982666,-155.269518,,US,US-HI,Laupahoehoe
5451,PHMU,medium_airport,Waimea Kohala Airport,20.001301,-155.667999,2671,US,US-HI,Waimea (Kamuela)
336023,US-1588,closed,Old Waimea-Kamuela Airport / Bordelon Field,20.00479,-155.682702,2585,US,US-HI,Waimea (Kamuela)
355585,US-6940,heliport,Hapuna Heliport,20.005018,-155.795885,666,US,US-HI,Waimea (Kamuela)
17632,HI18,heliport,Lucy Henriques Medical Center Heliport,20.02174,-155.663466,2707,US,US-HI,Waimea (Kamuela)
17636,HI27,small_airport,Upper Paauilo Airstrip,20.028196,-155.388162,1520,US,US-HI,Paauilo
17627,HI05,small_airport,Honokaa Airstrip,20.083599,-155.501999,1440,US,US-HI,Honokaa
5458,PHUP,small_airport,Upolu Airport,20.265301,-155.860001,96,US,US-HI,Hawi
339337,US-2682,heliport,LZ Squid Helipad,20.50918,-156.67287,,US,US-HI,Kaho'olawe
339338,US-2683,heliport,Honokanai'a South Helipad,20.50947,-156.68217,,US,US-HI,Kaho'olawe
337923,US-2149,heliport,Honokanai'a Helipad,20.51558,-156.68153,,US,US-HI,Kaho ªolawe
337922,US-2148,heliport,Pu'ukahua Helipad,20.53844,-156.6341,,US,US-HI,Kaho ªolawe
339336,US-2681,heliport,KeƒÅlialalo Helipad,20.54621,-156.64327,,US,US-HI,Kaho'olawe
337921,US-2147,heliport,Luamakika Helipad,20.56013,-156.57825,,US,US-HI,Kaho ªolawe
339339,US-2684,heliport,Kanapou Helipad,20.56031,-156.5656,,US,US-HI,Kaho'olawe
339335,US-2680,heliport,Moaulaiki Helipad,20.56446,-156.58529,,US,US-HI,Kaho'olawe
339334,US-2679,heliport,Kealialuna Helipad,20.57731,-156.57084,,US,US-HI,Kaho'olawe
339333,US-2678,heliport,Hakioawa Heliport,20.58758,-156.55753,,US,US-HI,Kaho'olawe
336827,US-1889,closed,Hamoa Airport,20.71814,-155.99068,,US,US-HI,Hana
325489,US-0719,heliport,Manele Heliport,20.745933,-156.913039,475,US,US-HI,Lanai
5454,PHNY,medium_airport,Lanai Airport,20.785675,-156.951324,1308,US,US-HI,Lanai City
336829,US-1891,closed,Maalaea Airport,20.79232,-156.51127,,US,US-HI,Wailuku
5444,PHHN,medium_airport,Hana Airport,20.795601,-156.014008,78,US,US-HI,Hana
336828,US-1890,closed,Maui (Puunene) Airport,20.8129,-156.45755,,US,US-HI,Kihei
343723,US-3800,heliport,Puunene National Guard Heliport,20.81854,-156.46555,72,US,US-HI,Kihei
325441,HI06,closed,Koele Heliport,20.840227,-156.920986,1756,US,US-HI,Lanai
334894,22HI,heliport,Maui Memorial Medical Heliport,20.885242,-156.490352,,US,US-HI,Wailuku
336840,US-1902,heliport,Kahului Heliport,20.88901,-156.43386,,US,US-HI,Kahului
5455,PHOG,medium_airport,Kahului Airport,20.898543,-156.431212,54,US,US-HI,Kahului
17646,HI50,heliport,Hyatt Regency Maui Hotel Heliport,20.912204,-156.691287,102,US,US-HI,Lahaina
313934,PHKP,closed,Kaanapali Airport,20.945,-156.69,3,US,US-HI,Lahaina
5446,PHJH,medium_airport,Kapalua Airport,20.9629,-156.673004,256,US,US-HI,Lahaina
346007,US-4657,closed,P≈´ko‚Äòo Airport,21.07222,-156.79892,12,US,US-HI,Kaunakakai
15607,99HI,heliport,Kawela Farm Heliport,21.079367,-156.97007,450,US,US-HI,Kaunakakai
345303,18HI,small_airport,Brandt Field,21.137026,-156.734498,685,US,US-HI,Port Saint Joe
17645,HI49,small_airport,Panda Airport,21.148991,-157.258432,250,US,US-HI,Kaunakakai
5450,PHMK,medium_airport,Molokai Airport,21.152901,-157.095993,454,US,US-HI,Kaunakakai
21732,PHLU,small_airport,Kalaupapa Airport,21.211,-156.973999,24,US,US-HI,Kalaupapa
351917,US-6383,heliport,Diamond Head Heliport,21.26357,-157.80314,292,US,US-HI,Honolulu
344634,US-4132,closed,Ala Wai Heliport,21.28232,-157.84092,,US,US-HI,Honolulu
17629,HI09,heliport,Honolulu Municipal Building Heliport,21.304213,-157.854802,231,US,US-HI,Honolulu
5447,PHJR,medium_airport,Kalaeloa Airport,21.3074,-158.070009,30,US,US-HI,Kapolei
17642,HI38,heliport,The Queen's Medical Center Heliport,21.308197,-157.853645,102,US,US-HI,Honolulu
336841,US-1903,heliport,Seabase Pier Helipad,21.3173,-157.91312,,US,US-HI,Honolulu
5453,PHNL,large_airport,Daniel K Inouye International Airport,21.32062,-157.924228,13,US,US-HI,Honolulu
17643,HI40,heliport,Kuakini Medical Center Heliport,21.32111,-157.85669,175,US,US-HI,Honolulu
343882,US-3890,closed,Marine Corps Air Station Ewa,21.32539,-158.04518,,US,US-HI,Ewa Beach
343877,US-3889,closed,Murray-Air Kapolei Airport,21.32888,-158.06051,,US,US-HI,Kapolei
335883,PHIK,medium_airport,Hickam Air Force Base,21.335278,-157.948333,13,US,US-HI,Honolulu
6650,02HI,heliport,K3 Helipad Heliport,21.35839,-157.94789,9,US,US-HI,Honolulu
343883,US-3891,closed,Waipi'o Peninsula Naval Reservation Airfield,21.36043,-157.98687,,US,US-HI,Waipahu
341375,US-3200,heliport,Spark M Matsunaga VA Medical Center Helipad,21.3622,-157.88626,,US,US-HI,Honolulu
23310,PHNP,small_airport,Ford Island Naval Auxiliary Landing Field,21.362946,-157.961784,18,US,US-HI,Honolulu
17649,HI55,heliport,Moanalua Medical Center Heliport,21.3641,-157.899002,18,US,US-HI,Honolulu
302039,BLW,closed,Bellows AFS (Bellows Field),21.370833,-157.713887,5,US,US-HI,Waimanalo
341374,US-3199,heliport,Queen's Medical Center West Oahu Helipad,21.37319,-158.02663,,US,US-HI,Ewa Beach
341376,US-3201,heliport,Adventist Health Castle Helipad,21.37957,-157.75815,,US,US-HI,Kailua
351911,US-6377,heliport,Camp Smith Heliport,21.38869,-157.90035,817,US,US-HI,Aiea
17634,HI24,heliport,Heco-Waiau Heliport,21.3908,-157.964996,6,US,US-HI,Honolulu
351914,US-6380,heliport,Nanakuli Heliport,21.42541,-158.1346,138,US,US-HI,Waianae
341371,US-3197,closed,Kailua Sky Ranch,21.42779,-157.74784,,US,US-HI,Kailua
337705,US-2080,closed,Kipapa Field,21.44348,-158.02668,,US,US-HI,Mililani
5452,PHNG,medium_airport,Kaneohe Bay MCAS (Marion E. Carl Field) Airport,21.4505,-157.768005,24,US,US-HI,Kaneohe
341372,US-3198,closed,Waiele Gulch Army Airfield,21.47129,-158.04155,,US,US-HI,Wahiawa
5443,PHHI,small_airport,Wheeler Army Airfield,21.481637,-158.037048,837,US,US-HI,Wahiawa
341370,US-3196,closed,Stanley Field,21.48401,-158.01358,,US,US-HI,Mililani
337667,US-2061,closed,Kualoa Army Airfield,21.51919,-157.83686,3,US,US-HI,Kaneohe
17650,HI56,closed,Kualoa Ranch Heliport,21.520605,-157.841981,125,US,US-HI,Kaneohe
351916,US-6382,heliport,Makua Upper Heliport,21.52928,-158.21626,223,US,US-HI,Waialua
351915,US-6381,heliport,Makua Lower Heliport,21.52936,-158.22585,23,US,US-HI,Waialua
352356,US-6434,closed,Kaena Point Satellite Tracking Station Heliport,21.56202,-158.24123,1286,US,US-HI,Waialua
5442,PHDH,small_airport,Dillingham Airfield,21.5795,-158.197006,14,US,US-HI,Mokuleia
336159,US-1657,closed,Haleiwa Airfield,21.603853,-158.103819,,US,US-HI,Haleiwa
17651,HI57,heliport,Kahuku Fire & Police Station Heliport,21.674228,-157.946414,11,US,US-HI,Kahuku
17630,HI12,closed,Kahuku Medical Center Heliport,21.676988,-157.955129,40,US,US-HI,Kahuku
17652,HI58,heliport,Turtle Bay Resort Heliport,21.703852,-157.995384,13,US,US-HI,Kahuku
341186,US-3192,closed,Kahuku Army Airfield / Kuilima Air Park,21.70753,-157.97196,,US,US-HI,Kahuku
24070,PHPA,small_airport,Port Allen Airport,21.8969,-159.602997,24,US,US-HI,Hanapepe
17644,HI46,small_airport,HI 23 (Puhi) Airstrip,21.944914,-159.439831,480,US,US-HI,Puhi
17641,HI33,small_airport,Haiku Airstrip,21.966071,-159.426963,385,US,US-HI,Lihue
5449,PHLI,medium_airport,Lihue Airport,21.976,-159.339005,153,US,US-HI,Lihue
337308,US-2005,closed,Kekaha Airstrip,21.976758,-159.744312,10,US,US-HI,Kekaha
338850,US-2500,heliport,Manawaiopuna Falls (Island Helicopters) Helipad,21.98762,-159.52756,,US,US-HI,Eleele
338849,US-2499,closed,Manawaiopuna Falls (Jurassic Park) Helipad,21.9879,-159.52606,,US,US-HI,Eleele
5441,PHBK,medium_airport,Barking Sands Airport,22.0228,-159.785004,23,US,US-HI,Kekaha
17625,HI03,small_airport,Hanamaulu Airstrip,22.041896,-159.388746,404,US,US-HI,Hanamaulu
338852,US-2502,heliport,Makaha Ridge Heliport,22.13063,-159.72739,,US,US-HI,Waimea
338851,US-2501,closed,Kealia Landing Strip,22.130698,-159.338118,,US,US-HI,Kapaa
17648,HI53,heliport,Kalalau Beach Heliport,22.17451,-159.655375,10,US,US-HI,Haena
17623,HI01,small_airport,Princeville Airport,22.209313,-159.44515,344,US,US-HI,Hanalei
17621,PHHF,small_airport,French Frigate Shoals Airport,23.869328,-166.285829,6,US,US-HI,Tern Island
3522,KEYW,medium_airport,Key West International Airport,24.556101,-81.759598,3,US,US-FL,Key West
336100,US-1632,heliport,Naval Air Station Key West Trumbo Point Heliport,24.565313,-81.79323,,US,US-FL,Key West
347471,US-5090,closed,Trumbo Point Seaplane Base,24.56661,-81.79347,,US,US-FL,Key West
341599,US-3272,heliport,Key West Marriott Beachside Helipad,24.57071,-81.75198,,US,US-FL,Key West
3738,KNQX,medium_airport,Naval Air Station Key West/Boca Chica Field,24.57579994,-81.68890381,6,US,US-FL,Key West
347472,US-5091,heliport,Monroe County Sheriff's Department Heliport,24.57792,-81.7524,3,US,US-FL,Key West
341600,US-3273,seaplane_base,Gulf of Mexico Seaplane Base,24.58069,-81.75175,,US,US-FL,Key West
14094,7FA0,heliport,Lower Keys Medical Center Heliport,24.58151,-81.742117,5,US,US-FL,Key West
336099,US-1631,heliport,Dry Tortugas (South Coaling Dock) Helipad,24.626352,-82.873277,3,US,US-FL,Key West
335116,US-1493,seaplane_base,Dry Tortugas Seaplane Base,24.626836,-82.871925,,US,US-FL,Key West
14095,7FA1,small_airport,Sugar Loaf Shores Airport,24.648938,-81.578357,4,US,US-FL,Key West
17322,FD51,small_airport,Summerland Key Cove Airport,24.658796,-81.445341,4,US,US-FL,Summerland Key
347478,US-5094,heliport,Summerland Key Private Helipad,24.66167,-81.45564,3,US,US-FL,Summerland Key
347475,US-5092,heliport,East Sister Rock Island Private Helipad,24.687178,-81.074767,6,US,US-FL,Marathon
338797,US-2458,heliport,Cudjoe Key Helipad,24.69567,-81.50429,4,US,US-FL,Cudjoe Key
338796,US-2457,balloonport,Cudjoe Key South TARS Site,24.69609,-81.50449,4,US,US-FL,Cudjoe Key
336101,US-1633,closed,Ed Barry's Airstrip,24.6961,-81.3496,,US,US-FL,Big Pine Key
338798,US-2459,balloonport,Cudjoe Key North TARS Site,24.70094,-81.5061,4,US,US-FL,Cudjoe Key
7660,10FL,heliport,Fishermen's Hospital Emergency Helistop,24.71039963,-81.09449768,5,US,US-FL,Marathon
20564,KMTH,medium_airport,The Florida Keys Marathon Airport,24.726101,-81.051399,5,US,US-FL,Marathon
9387,2FD5,heliport,Adventure Island Heliport,24.73430061,-81.01869965,3,US,US-FL,Marathon
17263,FA75,closed,Flying Bonefish Seaplane Base,24.768498,-80.946198,,US,US-FL,Marathon
336102,US-1634,closed,Matecumbe Key Airport,24.85973,-80.72728,,US,US-FL,Islamorada
17199,FA05,seaplane_base,Holiday Isle Seaplane Base,24.93490028,-80.60089874,,US,US-FL,Islamorada
10992,42FL,seaplane_base,Plantation Key Seaplane Base,24.97120094,-80.59559631,,US,US-FL,Marathon
17268,FA81,small_airport,Tavernaero Park Airport,25.004848,-80.533279,10,US,US-FL,Tavernier
17276,FD05,heliport,Mariners Hospital Heliport,25.00693,-80.52233,9,US,US-FL,Tavernier
313342,KYL,closed,Port Largo Airport,25.09334,-80.42992,4,US,US-FL,Key Largo
347470,US-5089,heliport,Key Largo Bay Marriott Beach Resort Helipad,25.14228,-80.39992,3,US,US-FL,Key Largo
6924,07FA,small_airport,Ocean Reef Club Airport,25.3253994,-80.27480316,8,US,US-FL,Key Largo
347476,US-5093,heliport,Pumpkin Key Private Helipad,25.32602,-80.2952,5,US,US-FL,Key Largo
344957,US-4264,closed,US Naval Reservation Homestead Heliport,25.37271,-80.42719,2,US,US-FL,Homestead
342440,US-3386,heliport,F P & L Turkey Point Helistop,25.430243,-80.339053,4,US,US-FL,Florida City
17288,FD17,heliport,Motorsports Complex VIP Heliport,25.448601,-80.410004,6,US,US-FL,Homestead
17305,FD34,heliport,Motorsports Complex EMS Heliport,25.453985,-80.407115,6,US,US-FL,Homestead
350039,US-5843,closed,Pitts Aviation Airport,25.47335,-80.53384,6,US,US-FL,Miami
347484,US-5097,closed,Homestead Municipal Airport,25.475,-80.465,6,US,US-FL,Homestead
342133,US-3300,heliport,Baptist Health South Florida Helipad,25.48061,-80.43147,7,US,US-FL,Homestead
3593,KHST,medium_airport,Homestead ARB Airport,25.48859978,-80.38359833,5,US,US-FL,Homestead
21403,KX51,small_airport,Miami Homestead General Aviation Airport,25.499201,-80.554296,7,US,US-FL,Homestead
11404,4FD3,small_airport,The Wright Place STOLport,25.51530075,-80.5134964,13,US,US-FL,Homestead
343848,US-3874,closed,Grove Airport,25.54609,-80.4985,9,US,US-FL,Homestead
13966,78FD,small_airport,Mac's Field,25.54649925,-80.46559906,16,US,US-FL,Homestead
17401,FL31,small_airport,Mjd STOLport,25.55459976,-80.55390167,6,US,US-FL,Miami
6760,04FA,small_airport,Richards Field,25.55870056,-80.51509857,9,US,US-FL,Homestead
347489,US-5102,closed,Davis Airport,25.5619,-80.45573,11,US,US-FL,Miami
17237,FA47,heliport,South Dade Community Health Center Heliport,25.5659008,-80.3506012,7,US,US-FL,Homestead
7875,14FA,small_airport,Burrs Strip,25.568621,-80.398822,10,US,US-FL,Miami
347537,US-5108,closed,Lain-Matthews Airport,25.57608,-80.52894,5,US,US-FL,Miami
7705,11FA,small_airport,B & L Farms Airport,25.582892,-80.498993,9,US,US-FL,Homestead
347538,US-5109,closed,Tom Werner Airport,25.58454,-80.45392,6,US,US-FL,Miami
337497,US-2010,closed,Kendall Gliderport,25.60369,-80.58518,7,US,US-FL,Miami
329926,US-1041,closed,Miami Gliderport Landing Strip,25.608162,-80.474778,7,US,US-FL,Homestead
347487,US-5100,closed,Naval Air Station Richmond,25.61448,-80.3971,12,US,US-FL,Miami
17225,FA35,small_airport,Lindbergh's Landing Airport,25.61949921,-80.48870087,9,US,US-FL,Miami
347488,US-5101,heliport,US Coast Guard Miami Communication Station Heliport,25.62158,-80.38941,8,US,US-FL,Miami
344089,US-3918,heliport,Jackson South Medical Center Heliport,25.62993,-80.3442,42,US,US-FL,Miami
347486,US-5099,closed,Chapman Field,25.63856,-80.29169,3,US,US-FL,Miami
21204,KTMB,medium_airport,Miami Executive Airport,25.6479,-80.4328,8,US,US-FL,Miami
347481,US-5095,closed,Compton Flying C Ranch Airport,25.65525,-80.34888,8,US,US-FL,Miami
15691,9FA8,heliport,Baptist Hospital Heliport,25.66699982,-80.33309937,15,US,US-FL,Miami
347485,US-5098,closed,Brown's Airport / Aero Country Club,25.66972,-80.31205,6,US,US-FL,Miami
338219,US-2197,heliport,Baptist Hospital Heliport,25.685037,-80.33761,,US,US-FL,Miami
343794,US-3837,closed,Richard Nixon Presidential Helipad,25.69175,-80.17505,,US,US-FL,Key Biscayne
9376,2FA0,heliport,Kendall District Station Heliport,25.69569969,-80.38140106,60,US,US-FL,Miami
342134,US-3309,heliport,Kendall Regional Medical Center Heliport,25.7303,-80.3859,55,US,US-FL,Miami
342357,US-3347,heliport,Mercy Hospital Heliport,25.74001,-80.21234,4,US,US-FL,Miami
17264,FA76,heliport,Nicklaus Childrens Hospital Heliport,25.7409301,-80.294641,54,US,US-FL,Miami
345368,US-4438,closed,Old Tamiami Airport,25.75239,-80.37443,7,US,US-FL,Miami
17294,FD23,heliport,Fisher Island Heliport,25.76420021,-80.13870239,5,US,US-FL,Miami
17461,FL94,heliport,Florida Power & Light County Heliport,25.76823316,-80.34499235,107,US,US-FL,Miami
342111,US-3306,heliport,Miami Tower Helipad,25.77232,-80.19155,632,US,US-FL,Miami
342112,US-3307,heliport,One Biscayne Tower Helipad,25.77408,-80.18801,500,US,US-FL,Miami
26128,X44,seaplane_base,Miami Seaplane Base,25.77829933,-80.17030334,0,US,US-FL,Miami
12943,64FL,heliport,District Vi Heliport,25.78188352,-80.37752353,8,US,US-FL,Miami
334337,US-1285,heliport,1000 Museum Heliport,25.784189,-80.190046,709,US,US-FL,Miami
26129,X48,heliport,Miami Heliport,25.78610039,-80.17739868,7,US,US-FL,Miami
326559,US-0821,heliport,University of Miami Hospital Heliport,25.787777,-80.215555,90,US,US-FL,Miami
8281,1FD5,closed,Miami Herald Heliport,25.78816,-80.185769,102,US,US-FL,Miami
9047,25FA,heliport,Jackson Memorial Hospital Heliport,25.7929,-80.204803,53,US,US-FL,Miami
3685,KMIA,large_airport,Miami International Airport,25.79319954,-80.29060364,8,US,US-FL,Miami
345369,US-4439,closed,Pan American Field,25.8047,-80.27667,7,US,US-FL,Miami
13683,71FL,heliport,Miami Federal Reserve Bank Heliport,25.80739628,-80.34191251,9,US,US-FL,Miami
17460,FL93,heliport,Mount Sinai Medical Center Heliport,25.81450081,-80.1411972,6,US,US-FL,Miami Beach
7160,0FA0,heliport,Doral Resort & Country Club Heliport,25.81734,-80.340416,6,US,US-FL,Miami
8937,23FA,heliport,Doral Ocean Beach Resort Heliport,25.82570076,-80.12120056,6,US,US-FL,Miami Beach
17465,FL98,heliport,Kelly Tractor Company Heliport,25.826578,-80.333485,8,US,US-FL,Miami
17271,FD00,heliport,Dade County Mosquito Control Heliport,25.82733996,-80.34247845,7,US,US-FL,Medley
26122,X01,small_airport,Everglades Airpark,25.84869957,-81.39009857,5,US,US-FL,Everglades
17450,FL83,heliport,Wsvn Television Channel 7 Heliport,25.85040092,-80.15450287,4,US,US-FL,Miami
14099,7FD3,heliport,Central District Police Station Heliport,25.85320091,-80.24700165,36,US,US-FL,Hialeah
350032,US-5836,closed,Sunnyside Airport,25.85634,-80.21506,6,US,US-FL,Miami
15707,9FL7,small_airport,Oasis Ranger Station-U.S. Government Airport,25.8572998,-81.03450012,10,US,US-FL,Everglades City
350033,US-5837,closed,North Shore Medical Center Heliport,25.85872,-80.21344,5,US,US-FL,Miami
21206,KTNT,small_airport,Dade Collier Training and Transition Airport,25.86179924,-80.89700317,13,US,US-FL,Miami
350040,US-5844,closed,Miami Municipal Airport / Amelia Earhart Field,25.87734,-80.26377,8,US,US-FL,Hialeah
350041,US-5845,closed,Master Field,25.88045,-80.25117,8,US,US-FL,Miami
8276,1FA5,heliport,Palmetto General Hospital Heliport,25.88659402,-80.32660313,10,US,US-FL,Hialeah
355787,US-6966,heliport,Big Cypress National Preserve Heliport,25.89987,-81.32079,2,US,US-FL,Ochopee
3426,KBRO,medium_airport,Brownsville South Padre Island International Airport,25.90679932,-97.42590332,22,US,US-TX,Brownsville
20757,KOPF,medium_airport,Miami-Opa Locka Executive Airport,25.907,-80.278397,8,US,US-FL,Miami
17454,FL87,heliport,Intra Coastal Police Sub-Station Heliport,25.91699982,-80.14980316,6,US,US-FL,North Miami Beach
355113,US-6886,heliport,FPL RMO Heliport,25.917292,-80.281606,49,US,US-FL,Miami Gardens
341161,US-3177,heliport,Valley Baptist Medical Center Brownsville Helipad,25.9177,-97.50918,,US,US-TX,Brownsville
14636,84FL,heliport,Capeletti Heliport,25.92539978,-80.29979706,7,US,US-FL,Hialeah
14513,80TX,closed,Resaca Airstrip,25.927082,-97.409048,20,US,US-TX,Brownsville
331625,US-0880,closed,Opa Locka West Airport,25.952481,-80.419152,8,US,US-FL,Miami
7164,0FD2,heliport,Hard Rock Stadium Heliport,25.960016,-80.237001,8,US,US-FL,Miami Gardens
6816,05FD,heliport,Aventura Heliport,25.96089935,-80.1391983,6,US,US-FL,North Miami Beach
342544,US-3423,closed,Mauldin Airport,25.96744,-97.51692,26,US,US-TX,Brownsville
17267,FA80,small_airport,Lost Horn Ranch Airport,25.96809959,-81.08149719,12,US,US-FL,Ochopee
341598,US-3271,heliport,Aventura Hospital and Medical Center Helipad,25.97052,-80.14527,164,US,US-FL,Aventura
9888,2XS0,heliport,Valley Regional Medical Center Helipad,25.977828,-97.515956,26,US,US-TX,Brownsville
17262,FA74,small_airport,Romor Ranch Airport,25.98089981,-81.05670166,12,US,US-FL,Ochopee
8289,1FL4,closed,NBC 6 (WTVJ) Heliport,25.986401,-80.353895,8,US,US-FL,Miramar
20521,KMKY,small_airport,Marco Island Executive Airport,25.995001,-81.672501,5,US,US-FL,Marco Island
340448,US-2998,closed,Hollywood Airpark / MacArthur Field,25.997811,-80.15043,,US,US-FL,Hollywood
20102,KHWO,small_airport,North Perry Airport,26.0012,-80.2407,8,US,US-FL,Hollywood
17213,FA21,heliport,Memorial Hospital West Helistop,26.01429939,-80.31140137,12,US,US-FL,Pembroke Pines
13928,77FD,heliport,Memorial Regional Hospital Heliport,26.01871065,-80.18131524,62,US,US-FL,Hollywood
350031,US-5835,heliport,US Border Patrol Brownsville Heliport,26.01953,-97.50814,21,US,US-TX,Brownsville
7984,16FA,small_airport,Little Deer Airport,26.03089905,-81.03869629,14,US,US-FL,Ochopee
340450,US-3000,closed,NOLF Davie / South Florida Airport,26.04,-80.23,,US,US-FL,Davie
17433,FL65,closed,Mac-Ivor & Friends Airstrip,26.0448,-80.373398,4,US,US-FL,Hollywood
345331,US-4417,heliport,Hollywood Helipad,26.045527,-80.215821,65,US,US-FL,Hollywood
17445,FL77,small_airport,Calusa Ranch Airport,26.05450058,-81.06780243,15,US,US-FL,Miles City
350371,US-5969,closed,Los Fresnos Airport,26.0626,-97.47362,35,US,US-TX,Los Fresnos
26208,XA83,closed,South Padre Island Heliport,26.070411,-97.15725,10,US,US-TX,South Padre Island
25172,TX57,heliport,US Coast Guard Station South Padre Island Heliport,26.07189,-97.163386,4,US,US-TX,South Padre Island
3531,KFLL,large_airport,Fort Lauderdale Hollywood International Airport,26.072599,-80.152702,9,US,US-FL,Fort Lauderdale
14033,79TX,closed,Ag-Air Inc. Airport,26.073099,-97.537498,30,US,US-TX,Brownsville
347727,76FA,heliport,Davie Medical Center Helipad,26.077222,-80.250833,67,US,US-FL,Davie
17437,FL69,heliport,Grande Oaks Golf Club Heliport,26.07979965,-80.25479889,10,US,US-FL,Davie
340451,US-3001,closed,NOLF Forman / Fort Lauderdale-Davie Airport,26.08,-80.24,,US,US-FL,Fort Lauderdale
350361,US-5962,closed,San Pedro Ranch Airport,26.08156,-97.98466,73,US,US-TX,Weslaco
350573,US-6037,small_airport,Rio Dusters Airport,26.08293,-97.68157,49,US,US-TX,San Benito
25022,TS05,closed,Progreso Airport,26.0837,-97.950302,70,US,US-TX,Progreso
17284,FD13,heliport,Cleveland Clinic Florida Hospital Heliport,26.08889961,-80.36579895,8,US,US-FL,Weston
349907,US-5806,small_airport,Alamo Aerial Applicators Airport,26.09342,-98.11185,84,US,US-TX,Alamo
9386,2FD4,heliport,Port Everglades Heliport,26.09620094,-80.11370087,25,US,US-FL,Fort Lauderdale
45355,4FL7,heliport,Physicians Regional Med Ctr-Collier Blvd Heliport,26.101967,-81.735767,14,US,US-FL,Naples
13246,6FD8,heliport,Broward Health Medical Center Heliport,26.103359,-80.140462,27,US,US-FL,Fort Lauderdale
337501,US-2014,heliport,Laguna Vista Heliport,26.11271,-97.30817,11,US,US-TX,Laguna Vista
17227,FA37,small_airport,Wing South Airpark,26.11680031,-81.70310211,9,US,US-FL,Naples
17342,FD73,closed,Los Olas Center Heliport,26.1187,-80.138702,198,US,US-FL,Fort Lauderdale
17153,DT1,heliport,Downtown Fort Lauderdale Heliport,26.12050056,-80.14209747,114,US,US-FL,Fort Lauderdale
15367,92TA,small_airport,Drennan Farm Airport,26.12120056,-97.4280014,27,US,US-TX,Los Fresnos
354125,US-6810,heliport,HCA Florida Westside Hospital Heliport,26.123314,-80.260475,16,US,US-FL,Plantation
350574,US-6038,closed,Donna Dusting Service Airport,26.12338,-98.05786,73,US,US-TX,Donna
9915,30FD,heliport,City of Fort Lauderdale Heliport,26.12400055,-80.14420319,6,US,US-FL,Fort Lauderdale
17203,FA10,closed,BSO Public Safety Helistop,26.124546,-80.176543,8,US,US-FL,Fort Lauderdale
45995,US-0082,heliport,Road Rock Inc. Heliport,26.13430023,-80.15229797,21,US,US-FL,Fort Lauderdale
342539,US-3420,closed,San Benito Municipal Airport,26.13501,-97.612168,31,US,US-TX,San Benito
310053,US-0235,closed,Farmer's Co-Op Airport,26.135599,-97.694702,35,US,US-TX,Harlingen
13247,6FD9,closed,Thunderbird Heliport,26.13846,-80.19226,40,US,US-FL,Fort Lauderdale
7641,0XS5,closed,Southeastern Helicopters Heliport,26.145731,-97.171369,5,US,US-TX,South Padre Island
11988,53XS,small_airport,Kornegay Private Airport,26.14839935,-97.59169769,30,US,US-TX,San Benito
7566,0TS8,small_airport,Flying 'K' Ranch Ultralightport,26.15040016,-97.88359833,81,US,US-TX,Mercedes
17365,FD97,heliport,Naples Community Hospital Heliport,26.151028,-81.797769,42,US,US-FL,Naples
45826,67XS,heliport,Knapp Medical Center Heliport,26.152597,-97.980001,78,US,US-TX,Weslaco
19293,KAPF,medium_airport,Naples Municipal Airport,26.15259933,-81.77529907,8,US,US-FL,Naples
11056,43TX,small_airport,Mid-Valley Dusters Inc Airport,26.15309906,-98.13500214,91,US,US-TX,Alamo
337703,US-2079,heliport,Harlingen Medical Center Helipad,26.157778,-97.674443,,US,US-TX,Harlingen
324419,US-0328,small_airport,Reynolds Ranch Airport,26.158425,-97.388688,24,US,US-TX,Bayview
9393,2FL1,heliport,Broward County Civic Arena Heliport,26.15940094,-80.32559967,10,US,US-FL,Sunrise
340449,US-2999,closed,Broward Field / Bradley Field,26.16,-80.16,,US,US-FL,Fort Lauderdale
20833,KPIL,small_airport,Port Isabel Cameron County Airport,26.16620064,-97.34590149,19,US,US-TX,Port Isabel
9798,2TS2,small_airport,Shofner Farms Airport,26.16839981,-97.7335968,57,US,US-TX,Harlingen
13994,78TS,heliport,South Texas Emergency Care Foundation Inc Heliport,26.168515,-97.666526,35,US,US-TX,Harlingen
350372,US-5970,closed,Woods Airport,26.16984,-98.03916,88,US,US-TX,Donna
45993,US-0080,closed,Naples Grand Golf Resort Heliport,26.170799,-81.758904,121,US,US-FL,Naples
350370,US-5968,closed,Pharr Airport,26.17096,-98.18082,110,US,US-TX,Pharr
350572,US-6036,closed,Shary / Hopson Putz Airport,26.17145,-98.2903,101,US,US-TX,Mission
11312,49TX,heliport,Valley Baptist Medical Center Helipad,26.175135,-97.669632,60,US,US-TX,Harlingen
12750,5XS6,small_airport,Old Reb Airport,26.1754,-97.875298,60,US,US-TX,Mercedes
3678,KMFE,medium_airport,McAllen Miller International Airport,26.176141,-98.237965,107,US,US-TX,McAllen
25084,TS68,heliport,Valley Baptist Medical Center (VBMC) Heliport,26.176695,-97.670898,35,US,US-TX,Harlingen
21161,KT65,small_airport,Mid Valley Airport,26.177601,-97.973098,70,US,US-TX,Weslaco
345246,US-4378,heliport,South Texas Health System Heart Heliport,26.18283,-98.21793,117,US,US-TX,McAllen
346779,US-4943,heliport,Air Evac 104 Heliport,26.18642,-98.2277,122,US,US-TX,McAllen
337502,US-2015,heliport,Rio Grande Regional Hospital Helipad,26.18706,-98.22021,120,US,US-TX,McAllen
337503,US-2016,heliport,South Texas Health System McAllen Helipad,26.18731,-98.22495,120,US,US-TX,McAllen
347358,US-5045,heliport,Texas Department of Public Safety Weslaco Heliport,26.18766,-97.9612,67,US,US-TX,Weslaco
340965,US-3084,heliport,Mission Regional Medical Center Helipad,26.19549,-98.31344,,US,US-TX,Mission
19912,KFXE,medium_airport,Fort Lauderdale Executive Airport,26.19729996,-80.17070007,13,US,US-FL,Fort Lauderdale
342537,US-3419,closed,Harlingen Municipal Airport / Harvey Richards Field,26.203,-97.75323,43,US,US-TX,Harlingen
46049,US-0136,closed,Putz Airport,26.205196,-98.401226,115,US,US-TX,Mission
350369,US-5967,closed,Eppright Flying Service / Mission Agro Airport,26.208,-98.36311,118,US,US-TX,Mission
343992,US-3905,heliport,University Hospital and Medical Center Heliport,26.21206,-80.25567,11,US,US-FL,Tamarac
42766,TX54,closed,Moore Airpark,26.212749,-98.406457,117,US,US-TX,Palmview
322640,65FA,heliport,Physicians Regional Medical Center Heliport,26.2143889,-81.7316556,5,US,US-FL,Naples
3591,KHRL,medium_airport,Valley International Airport,26.22850037,-97.65440369,36,US,US-TX,Harlingen
26286,XS63,closed,Texas Air Museum Airport,26.228701,-97.560799,30,US,US-TX,Rio Hondo
42783,3XA4,heliport,Palmview Police Department,26.23945236,-98.37071991,160,US,US-TX,Palmview
20844,KPMP,small_airport,Pompano Beach Airpark,26.24710083,-80.11109924,19,US,US-FL,Pompano Beach
26287,XS64,small_airport,Farm Services Inc Airport,26.24900055,-97.56500244,25,US,US-TX,Rio Hondo
25110,TS94,small_airport,Rancho Buena Vista Airport,26.25119972,-97.30079651,20,US,US-TX,Bay View
46056,US-0143,small_airport,Gross Private Airport,26.25919914,-98.27159882,156,US,US-TX,Mc Allen
340963,US-3082,heliport,South Texas Health System Edinburg Helipad,26.26274,-98.18243,,US,US-TX,Edinburg
324603,FA98,heliport,North Collier Hospital Heliport,26.273841,-81.787872,7,US,US-FL,Naples
9194,28FA,heliport,N Broward Medical Center Heliport,26.27840042,-80.12200165,21,US,US-FL,Pompano Beach
13543,6TE0,small_airport,Skalitsky Airport,26.29030037,-97.94940186,60,US,US-TX,Edcouch
13625,6XS5,closed,Cannon Aviation Airport,26.299498,-97.955115,65,US,US-TX,Edcouch
342542,US-3421,closed,Edinburg Municipal Airport,26.30312,-98.20743,97,US,US-TX,Edinburg
17458,FL91,small_airport,Counter Terrorism Advanced Training Center Airport,26.309799,-81.227303,22,US,US-FL,Sunniland
12206,59FD,small_airport,Big Cypress Airfield,26.32615,-80.987919,20,US,US-FL,Immokalee
342549,US-3428,closed,Rio Grande Field,26.34714,-98.56566,296,US,US-TX,Santa Elena
10448,3FD8,heliport,West Boca Medical Center Heliport,26.356321,-80.200236,20,US,US-FL,Boca Raton
13544,6TE1,small_airport,Norman & White Airport,26.36149979,-98.15249634,90,US,US-TX,Edinburg
350307,US-5938,heliport,Starr County Memorial Hospital Heliport,26.377602,-98.858063,191,US,US-TX,Rio Grande City
19359,KBCT,small_airport,Boca Raton Airport,26.37849998,-80.10769653,13,US,US-FL,Boca Raton
9379,2FA4,small_airport,Southern Ranch Airport,26.37949944,-80.94560242,18,US,US-FL,Clewiston
350308,US-5939,closed,Rio Grande City Airport (1949),26.38235,-98.7961,200,US,US-TX,Rio Grande City
14399,7TE7,small_airport,Moore Field,26.383699,-98.333603,219,US,US-TX,Edinburg
7179,0FL9,small_airport,Mc Daniel Ranch Inc. Airport,26.393051,-81.02874,18,US,US-FL,Clewiston
347505,0FA6,heliport,Immokalee Helipad,26.39841,-81.414667,72,US,US-FL,Immokalee
343993,US-3906,heliport,Le Lac Heliport,26.41188,-80.13757,23,US,US-FL,Boca Raton
12167,58FL,heliport,AIM Heliport,26.415227,-80.183416,20,US,US-FL,Boca Raton
15370,92TX,closed,TGP 409 Heliport,26.41659,-98.135629,92,US,US-TX,Edinburg
338924,91FA,heliport,Williams Road Helistop,26.417734,-81.824487,10,US,US-FL,Estero
351033,US-6275,heliport,Hidalgo County Sheriff's Jail Heliport,26.41827,-98.12845,91,US,US-TX,Edinburg
18967,K67R,small_airport,Rio Grande City Municipal Airport,26.42429924,-98.84609985,290,US,US-TX,Rio Grande City
349908,US-5807,small_airport,Bennack Flying Services Airport,26.42522,-97.86537,39,US,US-TX,Lyford
20175,KIMM,small_airport,Immokalee Regional Airport,26.427933,-81.403531,37,US,US-FL,Immokalee
17432,FL64,heliport,Hardrives Delta Nr 3 Helistop,26.43280029,-80.09359741,15,US,US-FL,Delray Beach
11236,48FD,heliport,Delray Medical Center Emergency Helistop,26.438016,-80.127703,20,US,US-FL,Delray Beach
19719,KEBG,small_airport,South Texas International at Edinburg Airport,26.4417,-98.1222,75,US,US-TX,Edinburg
346913,49XA,small_airport,Omni Ranch Ultralight Flightpark,26.444628,-98.096628,56,US,US-TX,Edinburg
346018,US-4668,closed,Corkscrew Airport,26.44475,-81.62838,27,US,US-FL,Estero
8280,1FD4,small_airport,Corkscrew Trace Airpark,26.44540024,-81.6072998,29,US,US-FL,Estero
26279,XS56,small_airport,Flying W Airport,26.450571,-97.791011,30,US,US-TX,Raymondville
11410,4FD9,heliport,Bowman's Beach Helistop,26.46260071,-82.15679932,5,US,US-FL,Sanibel
17279,FD08,small_airport,Antiquers Aerodrome,26.4654007,-80.14980316,23,US,US-FL,Delray Beach
340987,US-3096,closed,Raymondville Airstrip,26.47114,-97.76709,,US,US-TX,Raymondville
340985,US-3094,closed,Fox Airport,26.47268,-97.7931,,US,US-TX,Raymondville
15375,92XS,small_airport,T R Funk Inc Airport,26.479176,-97.686734,24,US,US-TX,Raymondville
351306,US-6345,small_airport,BFS West Airport,26.4795,-98.383019,300,US,US-TX,McCook
340986,US-3095,closed,La Jarra Ranch Airport,26.48024,-97.74631,,US,US-TX,Raymondville
338867,US-2513,heliport,Winkler Helistop,26.480979,-81.896387,10,US,US-FL,Ft Myers
355112,US-6885,heliport,MP25 Heliport,26.488417,-81.829519,30,US,US-FL,Fort Myers
14097,7FD1,closed,Pine Ridge Helistop,26.49023,-81.933352,5,US,US-FL,Fort Myers
349906,US-5805,small_airport,Rowland Dusters Airport,26.49044,-97.95981,50,US,US-TX,Lasara
14785,88FD,heliport,Bethesda Memorial Hospital Heliport,26.50429916,-80.07029724,55,US,US-FL,Boynton Beach
332762,US-1156,heliport,Healthpark of Florida Emergency Helistop,26.5081,-81.913213,9,US,US-FL,Fort Myers
12347,5FD9,heliport,St James Helistop,26.5114994,-82.08840179,6,US,US-FL,Cape Coral
9378,2FA3,closed,Henderson Heliport,26.5187,-82.1518,8,US,US-FL,Bokeelia
350103,US-5897,closed,Alico Felda Grove Airport,26.51924,-81.38166,34,US,US-FL,LaBelle
6817,05FL,small_airport,Charlton Strip,26.52018,-81.41031,36,US,US-FL,La Belle
350104,US-5898,small_airport,Felda Airport,26.52105,-81.40396,33,US,US-FL,LaBelle
350849,US-6241,closed,Continental Oil Company Airport,26.52225,-98.58907,458,US,US-TX,Rio Grande City
3858,KRSW,large_airport,Southwest Florida International Airport,26.53619957,-81.75520325,30,US,US-FL,Fort Myers
11409,4FD8,heliport,Captiva Heliport,26.54170036,-82.19200134,3,US,US-FL,Sanibel
46076,3FA4,heliport,Gulf Coast Medical Center Heliport,26.54405556,-81.84880556,18,US,US-FL,Fort Myers
13061,67FD,heliport,Gulf Coast Hospital Heliport,26.54416667,-81.85,18,US,US-FL,Fort Myers
17234,FA44,small_airport,Willis Gliderport,26.54809952,-80.21479797,18,US,US-FL,Boynton Beach
342545,US-3424,closed,Arrowhead Ranch Airfield,26.551218,-98.440733,344,US,US-TX,Mission
350842,US-6234,closed,Santa Cruz Ranch Airport,26.55477,-98.55882,429,US,US-TX,Santa Elena
21135,KT05,small_airport,Charles R Johnson Airport,26.560018,-97.43923,10,US,US-TX,Port Mansfield
340988,US-3097,closed,Yturria Ranch Airport,26.563654,-97.783525,,US,US-TX,Raymondville
338799,US-2460,balloonport,Rio Grande City TARS Site,26.5723,-98.81714,330,US,US-TX,Rio Grande City
6972,08FA,small_airport,Duda Airstrip,26.57979965,-81.48370361,35,US,US-FL,La Belle
17410,FL41,small_airport,Okeelanta Airport,26.58119965,-80.75589752,14,US,US-FL,South Bay
17453,FL86,small_airport,Woodstock Airport,26.58259964,-82.0983963,5,US,US-FL,Fort Myers
312922,FAL,closed,Falcon State Airport,26.5856,-99.13985,358,US,US-TX,Roma
19882,KFMY,medium_airport,Page Field,26.58659935,-81.86329651,17,US,US-FL,Fort Myers
17258,FA69,small_airport,Duda Airstrip,26.58779907,-80.63729858,14,US,US-FL,Belle Glade
20357,KLNA,small_airport,Palm Beach County Park Airport,26.59300041,-80.08509827,14,US,US-FL,West Palm Beach
340989,US-3098,closed,Thomas Ranch Airport,26.595869,-97.77294,,US,US-TX,Raymondville
8279,1FD3,heliport,JFK Medical Center Heliport,26.597891,-80.09222,61,US,US-FL,Atlantis
350101,US-5895,small_airport,Alico Ranch Airport,26.5979,-81.13205,26,US,US-FL,Clewiston
17457,FL90,small_airport,Salty Approach Airport,26.60339928,-82.2201004,6,US,US-FL,Fort Myers
6926,07FL,closed,Southwest Florida Regional Medical Center Heliport,26.6054,-81.859497,18,US,US-FL,Fort Myers
11407,4FD6,heliport,Pine Island Helistop,26.6067009,-82.11090088,10,US,US-FL,Pine Island Center
10991,42FD,heliport,Palm Beach Community College Heliport,26.61070061,-80.08760071,13,US,US-FL,Lake Worth
345326,50FA,heliport,Lehigh Acres Regional Medical Center Heliport,26.616596,-81.659135,23,US,US-FL,Lehigh Acres
350684,US-6135,small_airport,San Jose de los Llanitos Airport,26.61891,-97.95865,51,US,US-TX,Raymondville
14101,7FD6,small_airport,Loxahatchee Airport,26.62260056,-80.30529785,14,US,US-FL,Lake Worth
17337,FD67,heliport,Lee Memorial Hospital Emergency Heliport,26.628744,-81.874731,12,US,US-FL,Fort Myers
17249,FA59,heliport,Nitv Heliport,26.63400078,-80.22419739,18,US,US-FL,Wellington
10952,41FL,heliport,Southern Machine & Steel Yard Heliport,26.63419914,-81.83399963,18,US,US-FL,Fort Myers
9243,29FA,seaplane_base,Caloosa Downtown Seaplane Base,26.63500023,-81.875,2,US,US-FL,Fort Myers
17408,FL39,heliport,Wellington Medical Center Heliport,26.63759995,-80.20449829,60,US,US-FL,West Palm Beach
17336,FD66,heliport,Cape Coral Hospital Heliport,26.638648,-81.94137,11,US,US-FL,Cape Coral
11402,4FA3,small_airport,Tranquility Bay Strip,26.64340019,-82.11789703,8,US,US-FL,Fort Myers
17427,FL59,small_airport,Buckingham Field,26.64340019,-81.71040344,23,US,US-FL,Fort Myers
17309,FD38,small_airport,Wellington Aero Club Airport,26.64649963,-80.29419708,19,US,US-FL,West Palm Beach
10457,3FL6,heliport,Wink Tv Heliport,26.6508007,-81.85559845,6,US,US-FL,Fort Myers
8275,1FA3,small_airport,Pine Island Airport,26.65620041,-82.12120056,12,US,US-FL,Fort Myers
11195,47FD,small_airport,Strayhorn Ranch Airport,26.66279984,-81.77059937,20,US,US-FL,Fort Myers
45992,US-0079,closed,Southwest Citrus Airport,26.6628,-81.423401,28,US,US-FL,La Belle
12346,5FD8,heliport,Bokeelia Helistop,26.670576,-82.134583,10,US,US-FL,Cape Coral
341501,US-3255,closed,Mar-a-Lago Helipad,26.67687,-80.03844,,US,US-FL,Palm Beach
13140,69FL,closed,Eagle's Landing Airport,26.677299,-82.136497,10,US,US-FL,Fort Myers
17211,FA19,heliport,Palms West Hospital Helistop,26.68059921,-80.84059906,21,US,US-FL,Loxahatchee
3766,KPBI,large_airport,Palm Beach International Airport,26.68320084,-80.09559631,19,US,US-FL,West Palm Beach
17455,FL88,small_airport,Bob Paul Airport,26.68370056,-81.44979858,28,US,US-FL,La Belle
6704,03FL,heliport,Ranger Heliport,26.683716,-80.186561,20,US,US-FL,West Palm Beach
344090,US-3919,heliport,Palms West Hospital Heliport,26.68466,-80.25155,19,US,US-FL,Loxahatchee
12038,55FL,heliport,The Murphy Company Heliport,26.68729973,-80.05729675,15,US,US-FL,West Palm Beach
345313,US-4410,closed,La Reforma Airport,26.68881,-98.38208,241,US,US-TX,Delmita
14096,7FA8,small_airport,Berry Grove Airport,26.69560051,-81.49060059,28,US,US-FL,La Belle
21391,KX10,small_airport,Belle Glade State Municipal Airport,26.70089912,-80.66230011,14,US,US-FL,Belle Glade
335813,US-1511,heliport,"VFT, LLC Heliport",26.707389,-80.661694,12,US,US-FL,Belle Glade
343285,US-3734,closed,Guines Ranch Airport,26.70739,-80.83724,14,US,US-FL,Clewiston
7170,0FL0,small_airport,Harper's Fly-In Ranch Airport,26.707834,-81.175549,30,US,US-FL,Clewiston
8036,17FA,small_airport,Cotton Strip,26.71339989,-81.53540039,18,US,US-FL,La Belle
17419,FL51,heliport,WPTV Heliport,26.71407,-80.063884,33,US,US-FL,West Palm Beach
14109,7FL5,heliport,West Palm Beach Police Station Heliport,26.714275,-80.058292,25,US,US-FL,West Palm Beach
342548,US-3427,small_airport,Ranchos Las Islas Airport,26.71523,-98.64392,489,US,US-TX,Rio Grande City
12353,5FL5,heliport,Palm Beach County Judicial Center Heliport,26.715467,-80.054281,297,US,US-FL,West Palm Beach
10322,39FL,heliport,Palm Beach Sheriff's Range Heliport,26.71699905,-80.19979858,20,US,US-FL,West Palm Beach
26316,XS93,small_airport,Diamond O Ranch Airport,26.720645,-98.560439,420,US,US-TX,Santa Elena
322012,9FA2,heliport,Lakeside Medical Center Heliport,26.723725,-80.6719694,11,US,US-FL,Belle Glade
9394,2FL2,heliport,Pbso-West County Jail Heliport,26.72439957,-80.66439819,14,US,US-FL,Belle Glade
17269,FA82,closed,Good Samaritan Medical Center Heliport,26.725199,-80.055705,17,US,US-FL,West Palm Beach
15416,94FL,small_airport,Pine Shadows Airpark,26.73279953,-81.89730072,20,US,US-FL,Fort Myers
350776,US-6198,small_airport,Alma Airport,26.732986,-81.571042,18,US,US-FL,Alva
348297,US-5441,closed,Telegraph Creek Airport,26.73458,-81.70042,14,US,US-FL,Alva
18593,K2IS,small_airport,Airglades Airport,26.735195,-81.051078,20,US,US-FL,Clewiston
17241,FA51,small_airport,Sky Manor Airport,26.739,-81.506203,15,US,US-FL,La Belle
12344,5FD6,heliport,Boca Grande Helistop,26.74230003,-82.25869751,10,US,US-FL,Boca Grande
343081,US-3642,closed,Clewiston Airport,26.7431,-80.94774,19,US,US-FL,Clewiston
21393,KX14,small_airport,La Belle Municipal Airport,26.74419975,-81.43260193,20,US,US-FL,La Belle
8294,1FL9,heliport,Hendry County Fire-Ems Heliport,26.74640083,-81.4285965,18,US,US-FL,La Belle
12341,5FD2,heliport,Rybovich Heliport,26.74920082,-80.04920197,10,US,US-FL,West Palm Beach
347473,45FA,heliport,Hendry Medical Heliport,26.751627,-80.941086,16,US,US-FL,Clewiston
14913,8FD9,heliport,Colony Heliport,26.75309944,-81.38510132,17,US,US-FL,La Belle
12942,64FD,heliport,Palm Beach Children's Hospital Heliport,26.756429,-80.061293,22,US,US-FL,West Palm Beach
329943,US-1047,closed,Braman Heliport,26.761451,-80.050319,0,US,US-FL,West Palm Beach
15307,91FD,heliport,Freedom Wpec Inc Heliport,26.7614994,-80.07060242,18,US,US-FL,Mangonia Park
340990,US-3099,closed,King Ranch Airstrip,26.762506,-97.693763,,US,US-TX,Norias
350102,US-5896,small_airport,The Florida Ridge Airsports Park,26.76282,-81.23091,20,US,US-FL,Clewiston
15448,95FD,small_airport,South Point Airport,26.7682991,-81.53890228,22,US,US-FL,La Belle
20829,KPHK,small_airport,Palm Beach County Glades Airport,26.78499985,-80.69339752,16,US,US-FL,Pahokee
342543,US-3422,closed,Humble-Kelsey Airfield,26.79439,-98.41682,241,US,US-TX,Encino
338727,7FA3,small_airport,Flying L Airport,26.797887,-81.525448,40,US,US-FL,Fort Denaud
17291,FD20,small_airport,Sundance Farms Airport,26.8003006,-81.48509979,50,US,US-FL,La Belle
10312,38XS,small_airport,San Rafael Ranch Airport,26.81520081,-98.47930145,312,US,US-TX,Santa Elena
14751,87FD,heliport,Palm Beach Gardens Medical Center Heliport,26.828694,-80.085369,14,US,US-FL,Palm Beach Gardens
17364,FD96,small_airport,Hilliard's Private Airport,26.83259964,-81.08010101,13,US,US-FL,Moore Haven
8283,1FD7,heliport,Pga National Heliport,26.83279991,-80.1434021,19,US,US-FL,Palm Beach Gardens
17409,FL40,small_airport,Graham Landing Strip - Moore Haven Airport,26.84090042,-81.15170288,18,US,US-FL,Moore Haven
19818,KF45,small_airport,North Palm Beach County General Aviation Airport,26.84440041,-80.22129822,22,US,US-FL,West Palm Beach
14923,8FL9,closed,Burnt Store Road Heliport,26.846631,-82.022228,9,US,US-FL,Punta Gorda
342547,US-3426,small_airport,Borregos Ranch Airport,26.85087,-98.67016,522,US,US-TX,Hebbronville
17244,FA54,small_airport,Coral Creek Airport,26.85449982,-82.25119781,4,US,US-FL,Placida
9396,2FL4,heliport,Brady Heliport,26.85580063,-80.0746994,4,US,US-FL,Juna Beach
9774,2TA8,small_airport,El Coyote Ranch Airport,26.85840034,-98.22200012,196,US,US-TX,Encino
12207,59FL,heliport,Florida Power & Light-Juno Beach Heliport,26.85953,-80.058042,61,US,US-FL,Juno Beach
328432,US-0911,closed,South Tajos Ranch Airport,26.867933,-97.667664,15,US,US-TX,Sarita
17330,FD59,closed,Babcock H.Q. Airport,26.869499,-81.717598,34,US,US-FL,Punta Gorda
338724,7FA2,small_airport,Lykes Moore Haven Airport,26.878429,-81.140042,17,US,US-FL,Moore Haven
7009,08TS,closed,Puesta Del Sol Airport,26.881331,-98.504885,420,US,US-TX,La Gloria
10915,40FL,small_airport,Fred Babcock Airport,26.88509941,-81.75119781,38,US,US-FL,Punta Gorda
343376,US-3748,closed,Lakefront Lodge Airport,26.88774,-99.27566,338,US,US-TX,Zapata
10951,41FD,heliport,Rotunda Heliport,26.89579964,-82.24169922,3,US,US-FL,Placida
344743,US-4157,small_airport,Alto Colorado Ranch Airport,26.90146,-98.33837,267,US,US-TX,Encino
324704,71FA,heliport,FPL Jupiter West Office Complex Heliport,26.907,-80.3003471,25,US,US-FL,Jupiter
6868,06FA,small_airport,William P Gwinn Airport,26.90839958,-80.3289032,28,US,US-FL,Jupiter
14563,82FL,closed,BR Ranch Airport,26.9142,-80.205299,20,US,US-FL,Jupiter
338761,US-2425,small_airport,Lykes Silver Lake Airport,26.916974,-81.562583,30,US,US-FL,LaBelle
14525,81FD,closed,Flying H Heliport,26.917299,-80.199799,18,US,US-FL,Jupiter
20822,KPGD,medium_airport,Charlotte County Airport,26.9202,-81.990501,26,US,US-FL,Punta Gorda
12772,60FL,heliport,Jupiter Medical Center Heliport,26.922671,-80.097511,15,US,US-FL,Jupiter
11224,47TX,small_airport,Armstrong Ranch Airport,26.93390083,-97.76249695,27,US,US-TX,Armstrong
13251,6FL3,small_airport,Payson Ranch Airport,26.93729973,-81.56700134,62,US,US-FL,Punta Gorda
350038,US-5842,small_airport,Chape√±o Airport,26.93818,-98.1779,159,US,US-TX,Encino
17441,FL73,closed,Lykes Palmdale Airport,26.9478,-81.318703,42,US,US-FL,Palmdale
21170,KAPY,small_airport,Zapata County Airport,26.96879959,-99.24890137,422,US,US-TX,Zapata
17187,F13,small_airport,Shell Creek Airpark,26.96890068,-81.91560364,20,US,US-FL,Punta Gorda
17286,FD15,small_airport,Tailwinds Airport,26.97949982,-80.21869659,19,US,US-FL,Jupiter
14562,82FD,heliport,Atc Heliport,26.98870087,-80.09279633,6,US,US-FL,Jupiter
345778,US-4552,heliport,Fawcett Memorial Hospital Helipad,26.988793,-82.099457,29,US,US-FL,Port Charlotte
26127,X36,small_airport,Buchan Airport,26.99010086,-82.37400055,15,US,US-FL,Englewood
17196,FA01,heliport,St. Joseph Hospital Heliport,26.99090004,-82.0951004,13,US,US-FL,Port Charlotte
10440,3FD0,small_airport,Last Chance Ranch Airport,27.02169991,-81.45120239,70,US,US-FL,Lake Placid
322246,81FA,heliport,Johnson Ranch Heliport,27.033889,-80.166389,14,US,US-FL,Hobe Sound
21405,KX58,small_airport,Indiantown Airport,27.03639984,-80.44010162,30,US,US-FL,Indiantown
8786,20FL,small_airport,Lake Suzy Estates Airport,27.04260063,-82.04370117,25,US,US-FL,Port Charlotte
14635,84FD,heliport,North Port Ems Heliport,27.04610062,-82.23629761,14,US,US-FL,North Port
342546,US-3425,closed,Lytton Ranch Airport,27.04643,-98.77237,637,US,US-TX,Hebbronville
9097,26FD,small_airport,Hennessy Airport,27.05120087,-81.84809875,50,US,US-FL,Arcadia
7023,09FL,small_airport,Sunnybreeze Airport,27.05559921,-81.97059631,60,US,US-FL,Arcadia
325451,FA87,heliport,Sarasota Memorial Hospital North Port ER Heliport,27.056666,-82.159444,25,US,US-FL,North Port
322106,US-0405,heliport,North Port Fire Rescue Station 84 Heliport,27.066541,-82.162708,25,US,US-FL,North Port
21331,KVNC,small_airport,Venice Municipal Airport,27.07159996,-82.44029999,18,US,US-FL,Venice
14526,81FL,closed,Cox's Hammock Airport,27.071699,-80.520102,35,US,US-FL,Indiantown
14393,7TE1,closed,Zachry Ranch Airport,27.072788,-98.935425,592,US,US-TX,Escobas
17254,FA64,small_airport,Montgomery Ranch Airport,27.07449913,-81.58650208,75,US,US-FL,Arcadia
345994,0FA3,heliport,Brighton Helipad,27.075744,-81.071125,24,US,US-FL,Brighton
24752,TA44,small_airport,Puesta del Sol Airport,27.076169,-98.601476,448,US,US-TX,Hebbronville
6974,08FL,small_airport,J. H. Hendrie Farms Airport,27.08449936,-81.3286972,103,US,US-FL,Lake Placid
17216,FA24,small_airport,Horseshoe Acres Airpark,27.09329987,-80.61219788,9,US,US-FL,Indiantown
8086,18FA,closed,Tropical Plantation Airport,27.099405,-80.296005,19,US,US-FL,Palm City
14394,7TE2,small_airport,Cage Ranch Airport,27.10589981,-98.20580292,148,US,US-TX,Falfurrias
26317,XS94,small_airport,Corralitos Airport,27.110988,-99.423323,360,US,US-TX,San Ygnacio
14488,80FD,small_airport,Brady Ranch Airport,27.11339951,-80.63339996,18,US,US-FL,Indiantown
15345,92FL,closed,Carlstrom Field,27.1206,-81.8498,35,US,US-FL,Arcadia
347015,US-4986,small_airport,Hummingbirds Landing,27.120972,-81.802692,50,US,US-FL,Arcadia
46069,US-0156,closed,Jennings Ranch Airport,27.12622,-99.12403,440,US,US-TX,Zapata
345312,US-4409,small_airport,Superior Airport,27.130513,-98.403554,350,US,US-TX,Falfurrias
12941,64FA,small_airport,Naked Lady Ranch Airport,27.14279938,-80.33779907,22,US,US-FL,Stuart
17310,FD39,small_airport,Flying Cow Air Ranch Airport,27.1556,-80.691704,19,US,US-FL,Okeechobee
15276,90FD,closed,Blue Head Ranch Airport,27.1625,-81.542901,77,US,US-FL,Lake Placid
348174,US-5383,small_airport,McNeel Ranch Airport,27.16314,-99.36131,384,US,US-TX,San Ygnacio
14786,88FL,heliport,Sailfish Point Heliport,27.177813,-80.157706,5,US,US-FL,Sewall's Point
348361,US-5464,small_airport,Las Vivoritas Airport,27.17846,-98.65057,497,US,US-TX,Hebbronville
21115,KSUA,small_airport,Witham Field,27.18169975,-80.22109985,16,US,US-FL,Stuart
17341,FD72,small_airport,Kings Port Airport,27.18280029,-81.39060211,148,US,US-FL,Lake Placid
14910,8FD5,small_airport,Lykes Brighton Airport,27.18889999,-81.08699799,30,US,US-FL,Okeechobee
350683,US-6134,small_airport,La Paloma Ranch Airport,27.19223,-97.94505,63,US,US-TX,Sarita
21389,KX06,small_airport,Arcadia Municipal Airport,27.195549,-81.837287,63,US,US-FL,Arcadia
14915,8FL1,small_airport,Mc Donald's Field,27.1970005,-81.91560364,54,US,US-FL,Arcadia
11072,44FL,heliport,Martin Memorial Hospital Heliport,27.200612,-80.243496,5,US,US-FL,Stuart
350705,US-6153,closed,La Perla Ranch Airport,27.20521,-99.409,367,US,US-TX,San Ygnacio
17218,FA27,small_airport,Ellsworth Field,27.20560074,-81.77719879,60,US,US-FL,Arcadia
17314,FD43,closed,Oaks Helistop,27.2064,-82.488197,14,US,US-FL,Venice
19383,KBKS,small_airport,Brooks County Airport,27.20680046,-98.12120056,113,US,US-TX,Falfurrias
347555,US-5120,small_airport,Carlton Ranch-Sidell Airport,27.20768,-82.12742,42,US,US-FL,Arcadia
12987,65FL,heliport,"Floridian National Golf Club, LLC Heliport",27.208599,-80.291398,15,US,US-FL,Stuart
333599,US-1222,heliport,Neshama Heliport,27.2109,-80.209622,,US,US-FL,Stuart
345245,US-4377,heliport,Falfurrias Hospital Heliport,27.21484,-98.1468,111,US,US-TX,Falfurrias
345592,15FA,heliport,Amistad Ranch Heliport,27.215842,-80.684881,37,US,US-FL,Okeechobee
17295,FD24,small_airport,Southern Fruit Groves Airport,27.22120094,-80.52059937,26,US,US-FL,Port St. Lucie
328430,US-0909,small_airport,La Parra Ranch Airport,27.225577,-97.69765,11,US,US-TX,Sarita
17353,FD85,heliport,DeSoto Memorial Hospital Heliport,27.227924,-81.849732,65,US,US-FL,Arcadia
6533,00FL,small_airport,River Oak Airport,27.23089981,-80.96920013,35,US,US-FL,Okeechobee
9996,32FA,small_airport,Sunset Strip Airpark,27.23419952,-80.90370178,34,US,US-FL,Okeechobee
325500,US-0726,heliport,Amistad Central Heliport,27.237333,-80.692163,40,US,US-FL,Okeechobee
17406,FL37,small_airport,Treasure Coast Airpark,27.23839951,-80.49140167,30,US,US-FL,Fort Pierce
17250,FA60,small_airport,Vince's Condominium Association Airport,27.23889923,-81.3859024,115,US,US-FL,Lake Placid
7021,09FA,small_airport,Placid Lakes Airport,27.24559975,-81.4131012,130,US,US-FL,Lake Placid
17396,FL26,closed,Kitching Cove Seaplane Base,27.250299,-80.322247,0,US,US-FL,Port St Lucie
15591,98TX,heliport,Cig 402 Heliport,27.25670052,-98.09420013,110,US,US-TX,Falfurrias
9098,26FL,heliport,HCA Raulerson Hospital Heliport,27.259106,-80.829104,34,US,US-FL,Okeechobee
342135,US-3310,heliport,Cleveland Clinic Tradition Hospital Helipad,27.26168,-80.42405,26,US,US-FL,Port Saint Lucie
20711,KOBE,small_airport,Okeechobee County Airport,27.26280022,-80.84980011,34,US,US-FL,Okeechobee
321970,US-0378,heliport,Amistad North Heliport,27.271825,-80.681792,40,US,US-FL,Okeechobee
17223,FA33,heliport,Mosquito Ctl Heliport,27.27249908,-82.3660965,25,US,US-FL,Sarasota
347350,US-5038,closed,Kingsville Naval Outlying Landing Field Number 55,27.277,-97.72433,22,US,US-TX,Riviera
17435,FL67,small_airport,Evans Properties Inc Airport,27.27779961,-80.58589935,24,US,US-FL,Fort Pierce
340487,US-3022,small_airport,Jacalon Ranch Airport,27.280417,-98.96699,823,US,US-TX,Hebbronville
17392,FL22,heliport,Saint Lucie Medical Center Heliport,27.288434,-80.292856,16,US,US-FL,Port Saint Lucie
8882,22FA,small_airport,Hidden River Airport,27.30310059,-82.27259827,47,US,US-FL,Sarasota
7161,0FA1,small_airport,Ott's Landing Airport,27.3039,-81.880403,65,US,US-FL,Arcadia
24840,TE32,small_airport,Rancho Blanco Airport,27.30859947,-99.48139954,385,US,US-TX,Laredo
17215,FA23,heliport,Sarasota Memorial Hospital Heliport,27.31780052,-82.52980042,100,US,US-FL,Sarasota
350650,US-6102,closed,Kingsville Naval Outlying Landing Field Number 54,27.31787,-97.79706,36,US,US-TX,Riviera
342143,US-3318,heliport,Martin Emergency Center at Saint Lucie West Helipad,27.31916,-80.38235,20,US,US-FL,Port Saint Lucie
9914,30FA,heliport,Florida Hospital Lake Placid Heliport,27.32049942,-81.37049866,141,US,US-FL,Lake Placid
17339,FD70,small_airport,River Acres Airport,27.32530022,-81.02870178,30,US,US-FL,Okeechobee
343983,US-3903,closed,Camino de Fierro Airport,27.32774,-98.7193,617,US,US-TX,Hebbronville
343982,US-3902,closed,Gruy Airport,27.32972,-98.68437,604,US,US-TX,Hebbronville
17265,FA77,small_airport,Lowe's Airport,27.33090019,-82.29060364,54,US,US-FL,Sarasota
15483,96FD,small_airport,Citrus Hedging Ranch Airport,27.33340073,-80.73619843,60,US,US-FL,Okeechobee
17214,FA22,heliport,Dove Heliport,27.33340073,-82.43009949,12,US,US-FL,Sarasota
26275,XS52,heliport,Lewis Heliport,27.337131,-98.128417,145,US,US-TX,Premont
13254,6FL6,heliport,Sarasota Dept Of Fire-Rescue East Side Heliport,27.33889961,-82.49649811,25,US,US-FL,Sarasota
17356,FD88,small_airport,Aero Acres Airport,27.34199905,-80.52200317,25,US,US-FL,Fort Pierce
11418,4FL8,small_airport,Schwartz Farms Inc Airport,27.34370041,-82.31729889,53,US,US-FL,Sarasota
17311,FD40,closed,Gardner Airport,27.3445,-81.792296,76,US,US-FL,Gardner
20030,KHBV,small_airport,Jim Hogg County Airport,27.34959984,-98.73699951,663,US,US-TX,Hebbronville
13841,75FD,heliport,Florida Power & Light St. Lucie Nuclear Power Plant Heliport,27.35063,-80.244784,17,US,US-FL,Fort Pierce
6702,03FA,small_airport,Lake Persimmon Airstrip,27.35309982,-81.40809631,70,US,US-FL,Lake Placid
15217,8TX8,small_airport,Weeks Airport,27.360745,-98.179622,190,US,US-TX,Premont
15277,90FL,small_airport,Paxton Airport,27.36120033,-80.7609024,66,US,US-FL,Okeechobee
17399,FL29,small_airport,Hales 700 Airport,27.36120033,-80.57089996,26,US,US-FL,Fort Pierce
6973,08FD,small_airport,Sunniland Ranch Airport,27.36310005,-80.77279663,65,US,US-FL,Okeechobee
45994,US-0081,heliport,Sunshine Ranchettes Heliport,27.36420059,-81.48449707,140,US,US-FL,Sebring
343857,US-3882,closed,Premont Airport,27.36444,-98.11008,151,US,US-TX,Premont
338755,US-2420,small_airport,Lykes Fort Basinger Airport,27.379761,-81.147176,48,US,US-FL,Lorida
26273,XS50,small_airport,4G Ranch Airport,27.380468,-98.308134,272,US,US-TX,Concepcion
45352,7FL9,heliport,Lakewood Ranch Medical Center Helistop,27.390033,-82.435448,20,US,US-FL,Bradenton
347391,US-5052,closed,Kingsville Naval Outlying Landing Field Number 51,27.39419,-97.819,36,US,US-TX,Kingsville
3899,KSRQ,medium_airport,Sarasota Bradenton International Airport,27.395399,-82.554398,30,US,US-FL,Sarasota/Bradenton
8784,20FA,small_airport,Golden Land Ranch Airport,27.39620018,-80.92060089,43,US,US-FL,Okeechobee
15703,9FL3,seaplane_base,Lake Josephine Seaplane Base,27.39690018,-81.42669678,85,US,US-FL,Sebring
350583,US-6044,closed,Kingsville Naval Outlying Landing Field Number 52,27.40286,-97.73907,32,US,US-TX,Kingsville
331114,US-1109,small_airport,Gary Stark Airport,27.405008,-80.811469,62,US,US-FL,Okeechobee
340447,US-2997,closed,Fort Pierce Airport,27.408,-80.321,,US,US-FL,Fort Pierce
26274,XS51,small_airport,Seeligson Ranch Airport,27.408325,-98.143125,172,US,US-TX,Premont
17424,FL56,closed,Williams Hawgwild Airport,27.410157,-80.429342,20,US,US-FL,Fort Pierce
17301,FD30,small_airport,Southeastern Airport,27.41139984,-80.52619934,23,US,US-FL,Fort Pierce
17371,FL00,small_airport,Griffins Peace River Ranch Airport,27.41889954,-81.83260345,65,US,US-FL,Zolfo Springs
7917,14TS,small_airport,O S Wyatt Airport,27.42169952,-98.60449982,532,US,US-TX,Realitos
341167,US-3182,closed,Link Ranch Airport,27.42637,-99.47155,,US,US-TX,Laredo
17290,FD19,heliport,Lawnwood Medical Center Heliport,27.432888,-80.346037,18,US,US-FL,Fort Pierce
7543,0TE5,small_airport,Santa Maria Ranch Airport,27.43379974,-99.18589783,516,US,US-TX,Laredo
335329,US-1502,seaplane_base,Fort Pierce Seaplane Base,27.43935,-80.312139,0,US,US-FL,Fort Pierce
14107,7FL3,closed,Adams Ranch Airport,27.441653,-80.584953,25,US,US-FL,Fort Pierce
14112,7FL8,small_airport,Dragonfly Airport,27.44389915,-80.56510162,25,US,US-FL,Fort Pierce
336253,US-1704,small_airport,Dawson Private Strip,27.444844,-97.905942,74,US,US-TX,Kingsville
7857,13TS,small_airport,Van Es Ranch Airport,27.45529938,-98.92639923,830,US,US-TX,Oilton
13062,67FL,small_airport,Myakka Head Airport,27.45560074,-82.10500336,80,US,US-FL,Zolfo Springs
21048,KSEF,small_airport,Sebring Regional Airport,27.45639992,-81.3423996,62,US,US-FL,Sebring
15695,9FD3,heliport,Highlands Regional Medical Center Heliport,27.46559906,-81.43229675,106,US,US-FL,Sebring
17328,FD57,small_airport,Baggett STOLport,27.46980095,-80.41639709,18,US,US-FL,Fort Pierce
338772,US-2436,closed,Laredo Auxiliary Airfield #2,27.47317,-99.22501,,US,US-TX,Laredo
347347,US-5035,closed,Kingsville Naval Air Station South Field / Kingsville South Municipal Airport,27.4781,-97.82719,52,US,US-TX,Kingsville
12350,5FL2,heliport,Blake Medical Center Heliport,27.48215,-82.622436,17,US,US-FL,Bradenton
25085,TS69,small_airport,Barronena East Airport,27.482691,-98.659915,576,US,US-TX,Hebbronville
323342,US-0565,heliport,Christus Spohn Hospital Kingsville Heliport,27.489274,-97.850262,55,US,US-TX,Kingsville
347349,US-5037,closed,Kingsville Intermediate Field,27.48931,-97.87215,58,US,US-TX,Kingsville
6743,03TE,small_airport,Barronena Ranch Airport,27.490812,-98.669615,600,US,US-TX,Hebbronville
3538,KFPR,medium_airport,St Lucie County International Airport,27.49510002,-80.36830139,24,US,US-FL,Fort Pierce
347352,US-5039,closed,Kingsville Naval Outlying Landing Field Number 42,27.49532,-97.35948,22,US,US-TX,Riviera
17414,FL45,heliport,Manatee Memorial Hospital Heliport,27.49575,-82.562537,10,US,US-FL,Bradenton
17393,FL23,closed,Strazzulla Groves Airport,27.4975,-80.53487,27,US,US-FL,Fort Pierce
3737,KNQI,medium_airport,Kingsville Naval Air Station,27.50720024,-97.80970001,50,US,US-TX,Kingsville
19494,KCHN,small_airport,Wauchula Municipal Airport,27.51490021,-81.88050079,106,US,US-FL,Wauchula
347357,US-5044,closed,Kingsville Naval Outlying Landing Field Number 25,27.51594,-97.62543,35,US,US-TX,Corpus Christi
340453,US-3002,closed,Falcon Ridge Airpark,27.520037,-80.482834,,US,US-FL,Fort Pierce
347356,US-5043,closed,Kingsville Naval Outlying Landing Field Number 13,27.52448,-97.54417,22,US,US-TX,Corpus Christi
26157,XA22,heliport,Laredo Medical Center Heliport,27.533935,-99.477847,466,US,US-TX,Laredo
343908,US-3897,closed,Killam Ranch Airport,27.53704,-99.41133,493,US,US-TX,Laredo
17242,FA52,heliport,AdventHealth Sebring Heliport,27.538057,-81.509274,154,US,US-FL,Sebring
10460,3FL9,closed,Sun N Lake Heliport,27.538601,-81.509804,156,US,US-FL,Sebring
17443,FL75,small_airport,Indian Hammock Airport,27.54199982,-80.83309937,65,US,US-FL,Fort Drum
3651,KLRD,medium_airport,Laredo International Airport,27.54380035,-99.46160126,508,US,US-TX,Laredo
13245,6FD7,small_airport,Thomson Airfield,27.5442009,-82.53009796,35,US,US-FL,Ellenton
8938,23FD,closed,Scott 2000 Airport,27.5473,-80.662003,27,US,US-FL,Vero Beach
20168,KIKG,small_airport,Kleberg County Airport,27.55089951,-98.03089905,130,US,US-TX,Kingsville
15199,8TS0,small_airport,Hamilton Ranch Airport,27.553545,-98.734606,698,US,US-TX,Freer
17456,FL89,closed,Triple M Airport,27.554199,-80.439796,20,US,US-FL,Vero Beach
340459,US-3007,small_airport,Double J Ranch Airport,27.557844,-98.782818,806,US,US-TX,Freer
347353,US-5040,closed,Kingsville Naval Outlying Landing Field Number 41,27.55961,-97.34088,23,US,US-TX,Riviera
322800,70FA,small_airport,Wee Bee Sky Ranch Airport,27.562175,-80.5993694,27,US,US-FL,Vero Beach
17296,FD25,small_airport,Fly In Ranches Airport,27.5625,-80.49980164,25,US,US-FL,Vero Beach
347354,US-5041,closed,Kingsville Naval Outlying Landing Field Number 11,27.56465,-97.47298,29,US,US-TX,Corpus Christi
14593,83FD,small_airport,Lake Montaza Airport,27.58029938,-80.81529999,52,US,US-FL,Okeechobee
347393,US-5054,closed,Lobo Ranch Airport,27.58305,-99.27984,702,US,US-TX,Laredo
343808,US-3841,closed,Avon Park South Target Airstrip,27.58329,-81.23434,65,US,US-FL,Avon Park
347390,US-5051,closed,Kingsville Naval Outlying Landing Field Number 53,27.58776,-97.86152,72,US,US-TX,Kingsville
19329,KAVO,small_airport,Avon Park Executive Airport,27.59119987,-81.52780151,160,US,US-FL,Avon Park
347392,US-5053,closed,House Tank Airport,27.59389,-99.29331,714,US,US-TX,Laredo
340460,US-3008,closed,Solo Ranch Airport,27.59804,-98.66087,,US,US-TX,Freer
10041,33FA,small_airport,Recreation Corporation Airport,27.59810066,-80.84590149,67,US,US-FL,Okeechobee
17442,FL74,small_airport,Indian River Aerodrome,27.59860039,-80.5019989,25,US,US-FL,Vero Beach
17197,FA03,closed,Southfork Airport,27.603901,-82.192903,109,US,US-FL,Duette
45814,28XA,heliport,Doctors Hospital of Laredo Heliport,27.606691,-99.479345,540,US,US-TX,Laredo
18329,K07R,small_airport,Bishop-Windham Airport,27.6103,-97.752614,55,US,US-TX,Bishop
337756,US-2097,closed,Killam & Hurd Airport,27.61656,-99.51985,,US,US-TX,Laredo
17372,FL01,small_airport,Crews Homestead Ranch Airport,27.62109947,-81.61060333,90,US,US-FL,Avon Park
43066,US-0016,closed,Oliver Till Airport,27.623899,-97.883102,85,US,US-TX,Bishop
26130,X52,small_airport,New Hibiscus Airpark,27.63229942,-80.52760315,25,US,US-FL,Vero Beach
17257,FA67,closed,Walker Memorial Medical Center Heliport,27.6325,-81.518402,120,US,US-FL,Avon Park
20665,KNWL,small_airport,Waldron Field Naval Outlying Landing Field,27.635,-97.312202,25,US,US-TX,Corpus Christi
350581,US-6042,closed,Kingsville Naval Outlying Landing Field Number 20,27.6418,-97.47538,33,US,US-TX,Corpus Christi
11271,48X,small_airport,Airport Manatee Airport,27.64249992,-82.52089691,27,US,US-FL,Palmetto
350582,US-6043,closed,Kingsville Naval Outlying Landing Field Number 22,27.64487,-97.61649,48,US,US-TX,Robstown
347076,US-4996,closed,Rodd Naval Auxiliary Air Station,27.64975,-97.37702,17,US,US-TX,Corpus Christi
347818,US-5191,closed,Ben Bolt East Airport,27.65033,-98.04372,183,US,US-TX,Alice
19252,KAGR,small_airport,MacDill Air Force Base Auxiliary Field,27.65060043,-81.34940338,68,US,US-FL,Avon Park
13165,69TA,small_airport,Dean Airport,27.65500069,-97.52529907,45,US,US-TX,Corpus Christi
3950,KVRB,medium_airport,Vero Beach Regional Airport,27.6556,-80.417901,24,US,US-FL,Vero Beach
347355,US-5042,closed,Kingsville Naval Outlying Landing Field Number 21,27.65778,-97.54235,50,US,US-TX,Corpus Christi
10447,3FD7,heliport,Indian River Memorial Hospital Heliport,27.658395,-80.396137,11,US,US-FL,Vero Beach
350672,US-6123,closed,La Parrilla Ranch Airport,27.6592,-98.64602,663,US,US-TX,Freer
352910,US-6522,closed,Exxon Flour Bluff Heliport,27.65961,-97.28486,11,US,US-TX,Corpus Christi
341166,US-3181,closed,Islitas Landing Strip,27.66548,-99.65031,,US,US-TX,Laredo
325807,FA97,heliport,Indian River County Sheriff's Office Heliport,27.665992,-80.425021,24,US,US-FL,Vero Beach
347077,US-4997,closed,Kingsville Naval Outlying Landing Field Number 36,27.68022,-97.78032,70,US,US-TX,Driscoll
8939,23FL,small_airport,Gyro Town Usa STOLport,27.68440056,-82.24420166,65,US,US-FL,Wimauma
8754,1XA3,heliport,Christus Spohn South Heliport,27.68479919,-97.37719727,24,US,US-TX,Corpus Christi
346883,US-4957,heliport,Corpus Christi Medical Center Bay Area Heliport,27.69225,-97.34572,17,US,US-TX,Corpus Christi
3726,KNGP,medium_airport,Corpus Christi Naval Air Station/Truax Field,27.69260025,-97.29109955,18,US,US-TX,Corpus Christi
20641,KNGW,small_airport,Cabaniss Field Naval Outlying Landing Field,27.704426,-97.440578,30,US,US-TX,Corpus Christi
343809,US-3842,closed,Avon Park North Target Airstrip,27.70849,-81.29545,128,US,US-FL,Avon Park
17462,FL95,small_airport,Broocke Air Patch Airport,27.70859909,-80.45279694,22,US,US-FL,Winter Beach
17345,FD77,small_airport,Wimauma Air Park,27.71199989,-82.28289795,100,US,US-FL,Wimauma
350445,US-5991,closed,Kingsville Naval Outlying Landing Field Number 32,27.71448,-97.68019,66,US,US-TX,Robstown
25171,TX56,small_airport,Douglass Ranch Airport,27.71549988,-98.70249939,680,US,US-TX,Freer
26269,XS45,heliport,Mustang Island Heliport,27.71590042,-97.17299652,10,US,US-TX,Port Aransas
6954,07TE,small_airport,Cuddihy Field,27.72109985,-97.51280212,39,US,US-TX,Corpus Christi
25127,TX10,heliport,Industrial Helicopters Inc Heliport,27.72330093,-97.57330322,10,US,US-TX,Corpus Christi
8088,18FL,closed,Bahia Beach Heliport,27.731072,-82.475878,6,US,US-FL,Ruskin
10273,38FD,heliport,Griffin's Main Office Heliport,27.73699951,-81.53199768,125,US,US-FL,Frostproof
329966,US-1051,closed,Florida Power Corp General HQ Helistop,27.7392,-82.681488,17,US,US-FL,St Petersburg
11414,4FL3,small_airport,Fellsmere Airport,27.740214,-80.666792,24,US,US-FL,Fellsmere
3372,KALI,medium_airport,Alice International Airport,27.7409,-98.026901,178,US,US-TX,Alice
10829,3TX0,heliport,Texas Department of Public Safety Corpus Christi Heliport,27.7411,-97.434998,37,US,US-TX,Corpus Christi
345311,US-4408,closed,San Diego Airport,27.7436,-98.25392,341,US,US-TX,San Diego
10073,33TX,heliport,Tgp 1 Heliport,27.74449921,-97.8463974,108,US,US-TX,Agua Dulce
310062,US-0238,closed,Rosita Creek Airport,27.7455,-98.35498,383,US,US-TX,San Diego
24850,TE42,heliport,D.F.C.H. Heliport,27.74860001,-97.38469696,31,US,US-TX,Corpus Christi
11910,52FL,small_airport,Lake Clinch Airpark,27.75029945,-81.55950165,140,US,US-FL,Frostproof
17317,FD46,seaplane_base,Goddard Seadrome Seaplane Base,27.75530052,-81.51399994,78,US,US-FL,Frostproof
11416,4FL5,small_airport,Ridge Landing Airport,27.75720024,-81.6006012,140,US,US-FL,Frostproof
9385,2FD3,heliport,Bayfront Medical Center Inc Heliport,27.763349,-82.642279,128,US,US-FL,St Petersburg
322820,US-0528,heliport,Christus Spohn Hospital Alice Heliport,27.76503,-98.0409061,176,US,US-TX,Alice
21101,KSPG,small_airport,Albert Whitted Airport,27.7651,-82.626999,7,US,US-FL,St Petersburg
325752,US-0773,heliport,John Hopkins All Children's Hospital Heliport,27.76513,-82.640692,177,US,US-FL,St. Petersburg
347078,US-4998,closed,Corpus Christi Airport Cliff Maus Field,27.76517,-97.43679,40,US,US-TX,Corpus Christi
343763,US-3807,closed,Wagon Wheel Ranch Airport,27.76886,-99.75561,609,US,US-TX,Laredo
3466,KCRP,medium_airport,Corpus Christi International Airport,27.770399,-97.501198,44,US,US-TX,Corpus Christi
350443,US-5989,closed,Kingsville Naval Outlying Landing Field Number 31,27.77281,-97.62857,66,US,US-TX,Robstown
350444,US-5990,closed,Kingsville Naval Outlying Landing Field Number 35,27.77626,-97.75851,82,US,US-TX,Robstown
338918,US-2542,heliport,Christus Spohn Corpus Christi Shoreline Hospital Heliport,27.77787,-97.39436,,US,US-TX,Corpus Christi
20914,KRBO,small_airport,Nueces County Airport,27.778103,-97.690098,79,US,US-TX,Robstown
10456,3FL5,small_airport,Mills Ranch South Airport,27.77829933,-80.92189789,60,US,US-FL,Kenansville
13243,6FD5,small_airport,Blanket Bay Airport,27.77860069,-81.09980011,65,US,US-FL,Yeehaw Junction
7539,0TE1,heliport,Christus Spohn Hospital Memorial Heliport,27.780069,-97.414811,38,US,US-TX,Corpus Christi
45362,FD62,heliport,Waters Heliport,27.780083,-81.643278,125,US,US-FL,Fort Meade
18621,K2RR,small_airport,River Ranch Resort Airport,27.78219986,-81.20529938,55,US,US-FL,River Ranch
322113,1FA9,small_airport,Villa Char Mar Airport,27.785144,-81.651354,134,US,US-FL,Fort Meade
322112,US-0407,small_airport,Jubilee Acres Airport,27.785393,-81.65318,139,US,US-FL,Fort Meade
346408,58FA,heliport,Saint Joseph's Hospital South Heliport,27.786979,-82.345764,53,US,US-FL,Riverview
13089,67TX,small_airport,Old Hoppe Place Airport,27.8003006,-97.85119629,96,US,US-TX,Agua Dulce
26289,XS66,small_airport,Rabb Dusting Inc Airport,27.80389977,-97.74359894,83,US,US-TX,Robstown
7176,0FL6,small_airport,Stanchester Airport,27.806199,-82.141365,96,US,US-FL,Lithia
17334,FD64,heliport,Bay Pines Veterans Administration Heliport,27.80809975,-82.77449799,9,US,US-FL,St Petersburg
350446,US-5992,closed,Douglas Airport,27.80849,-97.51524,21,US,US-TX,Corpus Christi
17280,FD09,small_airport,Rlm Farms Airport,27.80999947,-80.85890198,75,US,US-FL,Kenansville
20908,KRAS,small_airport,Mustang Beach Airport,27.8118,-97.088799,5,US,US-TX,Port Aransas
21395,KX26,small_airport,Sebastian Municipal Airport,27.81259918,-80.49590302,21,US,US-FL,Sebastian
329480,US-0988,heliport,VRS Heliport,27.81355,-82.682233,43,US,US-FL,St. Petersburg
330487,72FA,heliport,Northside Hospital Heliport,27.825031,-82.703203,26,US,US-FL,Saint Petersburg
321925,US-0362,closed,Ambersand Beach Seaplane Base,27.826006,-80.431299,,US,US-FL,Sebastian
337755,US-2096,closed,Port Aransas Airport (1950),27.82815,-97.07424,,US,US-TX,Port Aransas
9223,28TA,small_airport,Duval County Ranch Co Airport,27.83359909,-98.71700287,665,US,US-TX,Freer
24717,TA09,closed,Naval Station Ingleside Heliport,27.834525,-97.204533,26,US,US-TX,Ingleside
45360,6FL7,heliport,Timmer Heliport,27.834669,-81.437533,104,US,US-FL,Lake Wales
25113,TS97,heliport,HPL Heliport,27.835061,-97.540573,60,US,US-TX,Corpus Christi
344835,44XA,small_airport,HFS Airport,27.836944,-97.771806,72,US,US-TX,Robstown
325709,US-0766,heliport,Sebastian River Medical Center Heliport,27.842488,-80.489663,19,US,US-FL,Sebastian
12861,62FL,small_airport,David Wine's Airstrip,27.84440041,-81.43969727,100,US,US-FL,Lake Wales
7693,10TX,heliport,SMC Aerospace Heliport,27.8447,-97.2239,15,US,US-TX,Ingleside
26205,XA80,heliport,Martin Energy Services Harbor Island Heliport,27.846726,-97.063127,8,US,US-TX,Port Aransas
7534,0TA6,closed,Arco Ingleside Shorebase Heliport,27.847799,-97.223,20,US,US-TX,Ingleside
3667,KMCF,medium_airport,Mac Dill Air Force Base,27.8493,-82.521202,14,US,US-FL,Tampa
343856,US-3881,closed,Port Aransas Airport (1948),27.84973,-97.05022,7,US,US-TX,Port Aransas
24870,TE62,small_airport,High Man Tower Airstrip,27.85429955,-97.68229675,90,US,US-TX,Robstown
340486,US-3021,closed,A P Ranch Airport,27.857237,-99.079748,476,US,US-TX,Encinal
343761,US-3805,closed,Rancho El Fresno Airport,27.86053,-99.59208,592,US,US-TX,Laredo
343762,US-3806,small_airport,Del Alto Ranch Airport,27.86067,-99.56233,674,US,US-TX,Laredo
10043,33FL,small_airport,Flying S Ranch Airport,27.860861,-80.999862,72,US,US-FL,Kenansville
11717,4TA7,heliport,Oak Ridge Heliport,27.86109924,-97.19889832,20,US,US-TX,Ingleside
11412,4FL1,small_airport,Escape Ranch Airport,27.8628006,-80.95809937,71,US,US-FL,Kenansville
15706,9FL6,heliport,Land South Heliport,27.86639977,-81.9693985,136,US,US-FL,Mulberry
15449,95FL,heliport,Pinellas County Mosquito Control Heliport,27.87560081,-82.68930054,10,US,US-FL,Pinellas Park
340470,US-3017,closed,Cavalier Groves Airfield,27.87903,-80.52664,,US,US-FL,Micco
15298,90TX,small_airport,Callaghan Ranch Airport,27.87940025,-99.396698,635,US,US-TX,Callaghan
17335,FD65,heliport,Bartow High School Heliport,27.87999916,-81.84120178,116,US,US-FL,Bartow
338541,US-2316,closed,Jefferies Ranch Landing Strip,27.8802,-99.60649,,US,US-TX,Laredo
9399,2FL8,small_airport,Tiger Lake Airport,27.88360023,-81.36309814,54,US,US-FL,River Ranch
21140,KT19,small_airport,Duval Freer Airport,27.88360023,-98.60030365,564,US,US-TX,Freer
336117,US-1635,closed,Aransas Pass Municipal Airport,27.884937,-97.149665,,US,US-TX,Aransas Pass
321920,80FA,seaplane_base,Lake Marian Seaplane Base,27.8863889,-81.0838888,62,US,US-FL,Kenansville
354065,US-6802,small_airport,Volpe Ranch Airport,27.88686,-98.9056,416,US,US-TX,Encinal
350848,US-6240,closed,La Mesa Ranch Airport,27.88737,-99.74067,780,US,US-TX,Laredo
15950,9R5,small_airport,Hunt Airport,27.88780022,-97.35440063,40,US,US-TX,Portland
17200,FA06,heliport,Pinellas County Sheriff's Building Heliport,27.89139938,-82.78929901,76,US,US-FL,Largo
21390,KX07,small_airport,Lake Wales Municipal Airport,27.89380074,-81.62039948,127,US,US-FL,Lake Wales
336362,US-1751,heliport,Mulberry High School Heliport,27.896572,-81.957986,,US,US-FL,Mulberry
17446,FL78,small_airport,Lewis Airport,27.89859962,-82.18260193,45,US,US-FL,Brandon
8037,17FD,closed,Sheriffs Helistop,27.90008,-81.845167,120,US,US-FL,Bartow
20648,KNOG,small_airport,Orange Grove Naval Auxiliary Landing Field,27.90110016,-98.05169678,257,US,US-TX,Orange Grove
9997,32FD,heliport,Kearney Construction Heliport,27.90439987,-82.38330078,13,US,US-FL,Riverview
7168,0FD6,seaplane_base,Fulton Seaplane Base,27.90749931,-80.48639679,,US,US-FL,Sebastian
3775,KPIE,medium_airport,St Petersburg Clearwater International Airport,27.91020012,-82.68740082,11,US,US-FL,St Petersburg-Clearwater
21152,KTFP,small_airport,McCampbell-Porter Airport,27.91300011,-97.21150208,18,US,US-TX,Ingleside
24809,TE00,heliport,Coastal Bend Hospital Heliport,27.913313,-97.159352,9,US,US-TX,Aransas Pass
347554,US-5119,heliport,Largo Medical Center Heliport,27.9142,-82.80295,36,US,US-FL,Largo
21215,KTPF,small_airport,Peter O Knight Airport,27.91559982,-82.44930267,8,US,US-FL,Tampa
24895,TE87,small_airport,Magee Airport,27.91580009,-97.32029724,35,US,US-TX,Portland
17235,FA45,heliport,Lake Wales Heliport,27.91634,-81.548982,125,US,US-FL,Lake Wales
350578,US-6041,closed,Odem Airport,27.91799,-97.57462,35,US,US-TX,Odem
8292,1FL7,heliport,Barton Regional Medical Center Heliport,27.91899,-81.844835,107,US,US-FL,Bartow
9398,2FL7,heliport,Porta Target Heliport,27.92420006,-80.61370087,28,US,US-FL,Palm Bay
324859,04FD,heliport,Tampa General Hospital Brandon Healthplex Heliport,27.929372,-82.336981,37,US,US-FL,Brandon
354609,US-6825,small_airport,Silverhorn Ranch Airport,27.929578,-98.533769,691,US,US-TX,Freer
15261,8XS2,closed,Rachal Airport,27.929701,-99.851196,600,US,US-TX,Laredo
353036,43FA,heliport,Air Eye Med Helistop,27.931176,-82.287834,30,US,US-FL,Brandon
12351,5FL3,heliport,Hospital Brandon Helistop,27.932905,-82.288778,64,US,US-FL,Brandon
21401,KX49,small_airport,South Lakeland Airport,27.9333992,-82.04399872,110,US,US-FL,Lakeland
12814,61FL,heliport,Tampa General Hospital Heliport,27.93810081,-82.45929718,7,US,US-FL,Tampa
45343,52FA,small_airport,Bent Willies Airport,27.939611,-81.432028,73,US,US-FL,Lake Wales
17459,FL92,heliport,L M Hughey Heliport,27.94140053,-82.53540039,27,US,US-FL,Tampa
344938,US-4249,closed,South Apache Ranch Airport,27.942575,-99.923995,531,US,US-TX,Laredo
19399,KBOW,small_airport,Bartow Executive Airport,27.943399,-81.783401,125,US,US-FL,Bartow
17438,FL70,heliport,Wfla-Tv 8 Heliport,27.94389915,-82.46170044,60,US,US-FL,Tampa
26290,XS67,small_airport,San Jose Island Airport,27.94449997,-96.98500061,10,US,US-TX,Rockport
15692,9FD0,seaplane_base,Sage Seadrome Seaplane Base,27.94560051,-81.40339661,53,US,US-FL,Lake Wales
15697,9FD6,heliport,Academy Heliport,27.94657,-82.420251,,US,US-FL,Tampa
17440,FL72,seaplane_base,Mezrah Seaplane Base,27.94750023,-82.39089966,6,US,US-FL,Tampa
14919,8FL5,closed,Dancing Oaks Heliport,27.9484,-81.863503,107,US,US-FL,Bartow
11996,54FL,heliport,Teco Plaza Heliport,27.9496994,-82.46009827,150,US,US-FL,Tampa
335861,US-1519,seaplane_base,Clearwater Marriott Seaplane Base,27.952748,-82.828299,1,US,US-FL,Clearwater
6870,06FL,heliport,Morton Plant Hospital Heliport,27.953527,-82.806222,3,US,US-FL,Clearwater
26125,X25,small_airport,Chalet Suzanne Air Strip,27.9538002,-81.60140228,130,US,US-FL,Lake Wales
45848,42XS,small_airport,Temple Ranch Airport,27.957444,-98.403889,490,US,US-TX,Freer
347361,US-5048,closed,Mobil Rockport Heliport,27.95947,-97.09603,6,US,US-TX,Rockport
21406,KX59,small_airport,Valkaria Airport,27.96199989,-80.55979919,26,US,US-FL,Malabar
324477,US-0577,heliport,Hillsborough County Fire Rescue Heliport,27.9699806,-82.3455833,39,US,US-FL,Tampa
3926,KTPA,large_airport,Tampa International Airport,27.97550011,-82.53320313,26,US,US-FL,Tampa
19516,KCLW,small_airport,Clearwater Air Park,27.97669983,-82.75869751,71,US,US-FL,Clearwater
13129,68TX,closed,San Patricio International Airport,27.980801,-97.786903,50,US,US-TX,San Patricio
17407,FL38,heliport,Care Flight Heliport,27.982466,-82.493799,29,US,US-FL,Tampa
9810,2TX4,small_airport,Lewis Ranch Airport,27.98360062,-99.37670135,540,US,US-TX,Encinal
340957,US-3076,closed,Hunt Dusting Service Field,27.98394,-97.38275,,US,US-TX,Taft
17278,FD07,heliport,Johnson Heliport,27.98699951,-82.71869659,57,US,US-FL,Safety Harbor
10223,37FD,closed,Ringhaver Heliport,27.988899,-80.626999,31,US,US-FL,Palm Bay
3628,KLAL,medium_airport,Lakeland Linder International Airport,27.988899,-82.018602,142,US,US-FL,Lakeland
17221,FA31,heliport,Cypress Gardens Heliport,27.98970032,-81.69309998,151,US,US-FL,Winter Haven
325760,US-0776,small_airport,Itll Do Airfield,27.990591,-97.894114,153,US,US-TX,Sandia
347058,US-4991,seaplane_base,Cherry Pockets Fish Camp Seaplane Base,27.993719,-81.544454,78,US,US-FL,Lake Wales
329591,US-0996,small_airport,J A Knolle Airport,27.993892,-97.820567,41,US,US-TX,Sandia
322720,88FA,heliport,Tampa Hard Rock Helipad,27.9955167,-82.370144,87,US,US-FL,Tampa
7630,0XA4,small_airport,Seven Cs Ranch Airport,27.996901,-98.882202,331,US,US-TX,Encinal
20811,KPCM,small_airport,Plant City Municipal Airport,28.00020027,-82.16419983,153,US,US-FL,Plant City
342144,US-3319,heliport,Health First's Palm Bay Hospital Helipad,28.00073,-80.6114,22,US,US-FL,Palm Bay
13102,68FL,closed,EMS Heliport,28.003098,-82.429001,49,US,US-FL,Tampa
354066,US-6803,closed,Welder Dobie Ranch Airport,28.00724,-98.89836,360,US,US-TX,Encinal
10914,40FD,heliport,Little's Heliport,28.01059914,-81.8789978,115,US,US-FL,Lakeland
21316,KVDF,small_airport,Tampa Executive Airport,28.01399994,-82.34529877,22,US,US-FL,Tampa
12166,58FD,small_airport,Southerly Airport,28.01420021,-81.54060364,78,US,US-FL,Dundee
17198,FA04,heliport,Mease Hospital Emergency Heliport,28.01420021,-82.78199768,35,US,US-FL,Dunedin
347050,US-4989,heliport,Baycare South Florida Baptist Hospital Heliport,28.015042,-82.138504,119,US,US-FL,Plant City
14105,7FL1,heliport,Adams Executive Heliport,28.01689911,-81.67500305,137,US,US-FL,Winter Haven
13242,6FD4,heliport,Dunedin Heliport,28.0196991,-82.78980255,10,US,US-FL,Dunedin
343827,US-3858,closed,Malabar Naval Outlying Landing Field,28.02123,-80.67993,24,US,US-FL,Palm Bay
12771,60FD,heliport,Winter Haven Hospital Heliport,28.028803,-81.725026,175,US,US-FL,Winter Haven
13718,72FD,heliport,Lazy B I Ranch Heliport,28.02969933,-81.65450287,125,US,US-FL,Winter Haven
355835,US-6998,closed,Scottys Incorporated Heliport,28.03575,-81.78339,140,US,US-FL,Winter Haven
17411,FL42,seaplane_base,King Seaaero Seaplane Base,28.03860092,-81.75370026,133,US,US-FL,Winter Haven
21163,KT69,small_airport,Alfred C 'Bubba' Thomas Airport,28.0392,-97.542397,48,US,US-TX,Sinton
340956,US-3075,closed,Sinton Airport,28.03996,-97.49163,,US,US-TX,Sinton
343787,US-3830,closed,House Landing Strip,28.04006,-97.93295,193,US,US-TX,Sandia
17344,FD75,closed,Gulf Aerospace Heliport,28.0411,-82.655098,48,US,US-FL,Oldsmar
14006,79FD,small_airport,Midway Lake Airport,28.04199982,-82.09230042,150,US,US-FL,Plant City
10181,36FL,heliport,Mease Countryside Hospital Heliport,28.0428,-82.707377,32,US,US-FL,Safety Harbor
344216,US-3963,heliport,Lewis Energy Heliport,28.0432,-99.36307,,US,US-TX,Encinal
9958,31FL,small_airport,Forever Florida Airport,28.043352,-81.01923,54,US,US-FL,St Cloud
17243,FA53,heliport,Eagles Nest Heliport,28.04389954,-81.84860229,125,US,US-FL,Auburndale
343161,US-3704,small_airport,Galvan Ranch Airport,28.04846,-99.67192,691,US,US-TX,Encinal
344956,US-4263,closed,Walker Ranch Private Airport,28.05535,-81.4048,67,US,US-FL,Poinciana
342586,US-3442,seaplane_base,Lake Hamilton Seaplane Base,28.056631,-81.638046,120,US,US-FL,Lake Hamilton
338010,US-2169,small_airport,Floyd Ranch Airport,28.056653,-98.142042,282,US,US-TX,Orange Grove
17191,F57,seaplane_base,Jack Browns Seaplane Base,28.05750084,-81.76280212,140,US,US-FL,Winter Haven
17387,FL16,small_airport,Market World Airport,28.05859947,-81.8164978,125,US,US-FL,Auburndale
14102,7FD7,heliport,Lakeland Regional Medical Center Heliport,28.062226,-81.954315,243,US,US-FL,Lakeland
19952,KGIF,small_airport,Winter Haven Regional Airport - Gilbert Field,28.062901,-81.753304,145,US,US-FL,Winter Haven
13645,70FL,closed,James A Haley Veterans Hospital Heliport,28.063101,-82.429298,40,US,US-FL,Tampa
17343,FD74,small_airport,Gamebird Groves Airstrip,28.066814,-80.902536,36,US,US-FL,St Cloud
344864,US-4206,closed,Tordillo Camp Airport,28.06766,-99.94292,627,US,US-TX,Encinal
24837,TE29,small_airport,La Esperanza Ranch Airport,28.069664,-99.568771,750,US,US-TX,Encinal
345367,US-4437,heliport,AdventHealth Tampa Heliport,28.07043,-82.42225,41,US,US-FL,Tampa
340972,US-3091,closed,Lake Corpus Christi Airport,28.07222,-97.85651,,US,US-TX,Mathis
343786,US-3829,closed,Carmel Hills Airport,28.07382,-97.9137,151,US,US-TX,Sandia
26191,XA66,small_airport,El Jardin Ranch Airport,28.07500076,-99.28639984,482,US,US-TX,Encinal
341488,US-3246,small_airport,Dixie Range Airstrip,28.08089,-98.71609,,US,US-TX,Tilden
336219,US-1677,small_airport,Bella Vista Ranch Airport,28.08591,-99.62058,787,US,US-TX,Encinal
20936,KRKP,small_airport,Aransas County Airport,28.08679962,-97.04460144,24,US,US-TX,Rockport
347621,US-5144,small_airport,El Perro Rojo Ranch Airport,28.08775,-98.81378,2947,US,US-TX,Encinal
10443,3FD3,heliport,Holmes Regional Medical Center Heliport,28.08779907,-80.61370087,40,US,US-FL,Melbourne
25193,TX79,small_airport,Crescent C Ranch Airport,28.08888817,-99.04888916,277,US,US-TX,Cotulla
3693,KMLB,medium_airport,Melbourne Orlando International Airport,28.1028,-80.645302,33,US,US-FL,Melbourne
8285,1FL0,seaplane_base,Garner Landing Seaplane Base,28.10359955,-81.80590057,147,US,US-FL,Auburndale
335353,1FA6,heliport,Arrowhead Heliport,28.10499,-82.4826,55,US,US-FL,Tampa
350329,US-5958,closed,Mathis Airport,28.10815,-97.83215,50,US,US-TX,Mathis
14905,8FA0,seaplane_base,Lake Gibson Seaplane Base,28.10860062,-81.95870209,142,US,US-FL,Lakeland
14031,79TE,small_airport,Arrowhead Airport,28.11560059,-97.93080139,165,US,US-TX,Lagarto
13542,6TA9,small_airport,Los Ebanos Ranch Airport,28.11700058,-98.04470062,225,US,US-TX,Mathis
340971,US-3090,closed,Vahlsing Airport,28.11814,-97.79181,,US,US-TX,Mathis
26235,XS10,closed,Aransas National Wildlife Refuge Airport,28.124533,-96.798692,10,US,US-TX,Matagorda Island
345473,FA84,seaplane_base,Lake Tarpon Seaplane Base,28.125,-82.726944,3,US,US-FL,Palm Harbor
17261,FA73,seaplane_base,Oak Harbor Seaplane Base,28.12890053,-81.68789673,130,US,US-FL,Haines City
11181,46TA,small_airport,Gould Strip,28.129929,-98.859289,287,US,US-TX,Cotulla
46306,FA70,heliport,Saint Joseph's Hospital North Heliport,28.130569,-82.509252,60,US,US-FL,Lutz
11147,45XS,small_airport,Ghost Apache Airport,28.131058,-98.906091,330,US,US-TX,Cotulla
17248,FA58,closed,AdventHealth North Pinellas Heliport,28.13264,-82.758417,39,US,US-FL,Tarpon Springs
17303,FD32,closed,Lake Gibson High School Heliport,28.1336,-81.942903,165,US,US-FL,Lakeland
320960,US-0326,seaplane_base,Lake Keystone Seaplane Base,28.1359444,-82.593975,42,US,US-FL,Odessa
15694,9FD2,small_airport,Blackwater Creek Ultralightport,28.13699913,-82.14649963,80,US,US-FL,Plant City
17308,FD37,small_airport,Gentry Airport,28.1371994,-81.26339722,80,US,US-FL,St Cloud
9881,2XA1,small_airport,Great Horizon Ranch Airport,28.140322,-98.935994,317,US,US-TX,Cotulla
15208,8TS9,small_airport,Strait Ranch Airport,28.140694,-99.566584,620,US,US-TX,Encinal
12235,59TS,small_airport,Rossler Ranch Airport,28.14310074,-98.15830231,250,US,US-TX,George West
11419,4FL9,small_airport,Gore Airport,28.14340019,-81.64700317,135,US,US-FL,Haines City
348272,US-5420,heliport,Poinciana Medical Center Heliport,28.144702,-81.475602,75,US,US-FL,Poinciana
340973,US-3092,small_airport,Airforce Turbine Service Private Airport,28.14761,-97.7899,,US,US-TX,Mathis
344215,US-3962,small_airport,Reynosa Ranch Airport,28.15004,-99.29814,,US,US-TX,Encinal
352434,US-6441,small_airport,La Buena Vida Airport,28.150459,-97.381139,39,US,US-TX,Woodsboro
346892,US-4966,closed,McCollum Airport,28.1527,-81.88052,140,US,US-FL,Lakeland
15972,9TE5,small_airport,Kalt Ranch Airport,28.15449905,-96.97689819,15,US,US-TX,Fulton
26143,XA08,small_airport,Los Cuernos Ranch Airport,28.157362,-99.095463,340,US,US-TX,Cotulla
13719,72FL,small_airport,Gator Airpark,28.15751648,-81.23479462,68,US,US-FL,St Cloud
17201,FA08,small_airport,Orlampa Inc Airport / Fantasy of Flight,28.166763,-81.809603,139,US,US-FL,Polk City
344214,US-3961,small_airport,Minton Ranch Airport,28.16848,-99.41398,,US,US-TX,Encinal
14030,79TA,small_airport,Morris Ranch Airport,28.16970062,-98.88999939,346,US,US-TX,Cotulla
43042,FL35,small_airport,Geraci Airpark,28.17499924,-82.48777771,65,US,US-FL,Lutz
17277,FD06,heliport,Lake Bird Heliport,28.18090057,-82.45559692,70,US,US-FL,Lutz
9400,2FL9,heliport,AdventHealth Heart of Florida Heliport,28.18145,-81.64277,166,US,US-FL,Davenport
10441,3FD1,closed,Tampa Bay Executive Airport,28.18799973,-82.62560272,41,US,US-FL,New Port Richey
11995,54FD,heliport,Bayflite One Satellite Base Heliport,28.18860054,-82.62670135,41,US,US-FL,Odessa
24689,US-0061,small_airport,Herradura Lodge Airport,28.191295,-98.921839,380,US,US-TX,Cotulla
15472,95TX,small_airport,Chupadera Ranch Airport,28.19249916,-100.0719986,651,US,US-TX,Carrizo Springs
15704,9FL4,heliport,Pasco County Mosquito Heliport,28.193424,-82.620376,40,US,US-FL,Odessa
14912,8FD8,heliport,Bayflite One Heliport,28.19389915,-82.62059784,55,US,US-FL,Odessa
9146,27FL,heliport,AdventHealth Wesley Chapel Heliport,28.19471,-82.350453,60,US,US-FL,Wesley Chapel
355674,9FA3,heliport,HCA Florida Trinity Hospital Heliport,28.202422,-82.66015,37,US,US-FL,Trinity
12685,5TS1,small_airport,Uno Mas Ranch Airport,28.2057991,-99.1344986,380,US,US-TX,Cotulla
11408,4FD7,small_airport,Flanders Field,28.20639992,-81.82790375,131,US,US-FL,Polk City
12124,57FA,small_airport,Lake X Airport,28.20859909,-81.11920166,72,US,US-FL,St Cloud
26214,XA89,small_airport,Faith Ranch Airport,28.20870018,-100.0189972,773,US,US-TX,Carrizo Springs
345447,US-4469,small_airport,El Quinto Ranch Airport,28.210956,-98.833737,365,US,US-TX,Cotulla
17304,FD33,small_airport,Green Swamp Aerodrome,28.21170044,-81.998703,115,US,US-FL,Lakeland
15344,92FD,heliport,Nierenberg Estate Heliport,28.21829987,-80.68419647,32,US,US-FL,Melbourne
21397,KX39,small_airport,Tampa North Aero Park Airport,28.22130013,-82.37449646,68,US,US-FL,Tampa
45358,3FA3,heliport,Southfork Heliport,28.226944,-81.366528,80,US,US-FL,Saint Cloud
21442,KZPH,small_airport,Zephyrhills Municipal Airport,28.228201,-82.155899,90,US,US-FL,Zephyrhills
346891,US-4965,small_airport,Cherokee Ranch Airport,28.23088,-81.81103,131,US,US-FL,Polk City
328036,FA94,seaplane_base,ONeals Seaplane Base,28.231111,-81.234444,63,US,US-FL,St Cloud
337736,US-2089,closed,St Cloud Airport,28.23429,-81.28338,,US,US-FL,St Cloud
3462,KCOF,medium_airport,Patrick Air Force Base,28.23489952,-80.61009979,8,US,US-FL,Cocoa Beach
17400,FL30,heliport,HCA New Port Richey Hospital Heliport,28.235162,-82.722374,25,US,US-FL,New Port Richey
17323,FD52,heliport,Orlando Health St Cloud Hospital Heliport,28.24389,-81.303454,70,US,US-FL,St Cloud
24871,TE63,small_airport,Arrowhead Ranch Airport,28.24609947,-98.55280304,296,US,US-TX,Tilden
10455,3FL4,heliport,Knobel Heliport,28.24850082,-80.66200256,38,US,US-FL,Cocoa
8668,1TE1,small_airport,Briscoes Catarina Ranch Airport,28.25029945,-99.81700134,650,US,US-TX,Catarina
17283,FD12,seaplane_base,Toho Seaplane Base,28.25029945,-81.39150238,80,US,US-FL,Kissimmee
10085,34FA,seaplane_base,Gezik Seaplane Base,28.25189972,-80.66889954,,US,US-FL,Rockledge
14752,87FL,heliport,King Heliport,28.25271,-82.743718,8,US,US-FL,New Port Richey
24835,TE27,small_airport,Harrison Piloncillo Ranch Airport,28.25440025,-99.59919739,520,US,US-TX,Catarina
13023,66FL,heliport,Va Outpatient Clinic Heliport,28.25469971,-80.74389648,29,US,US-FL,Melbourne
345405,US-4456,heliport,North Bay Hospital Heliport,28.25567,-82.71395,17,US,US-FL,New Port Richey
17412,FL43,small_airport,Burntwood Ranch Airport,28.25810051,-81.93060303,119,US,US-FL,Lakeland
17351,FD83,small_airport,Stout Airport,28.25860023,-81.38400269,65,US,US-FL,Kissimmee
322813,US-0527,heliport,AdventHealth Zephyrhills Heliport,28.261934,-82.185663,160,US,US-FL,Zephyrhills
353472,5FA2,heliport,Orlando Health Reunion Heliport,28.262575,-81.609728,124,US,US-FL,Davenport
9890,2XS2,small_airport,Indio-Faith Airport,28.26280022,-100.1620026,750,US,US-TX,Carrizo Springs
341172,US-3184,closed,Henrichson Ranch Airport,28.26298,-99.27024,,US,US-TX,Cotulla
8693,1TS6,small_airport,Dentonio Ranch Airport,28.26939964,-99.93450165,825,US,US-TX,Carrizo Springs
341430,US-3224,seaplane_base,St Cloud Seaplane Base,28.270833,-81.285,54,US,US-FL,St Cloud
8133,19FD,heliport,Osceola Sheriff's Office Bronson Highway Heliport,28.275101,-81.336502,66,US,US-FL,Kissimmee
7816,13FL,heliport,Gator Lake Heliport,28.277826,-82.32045,110,US,US-FL,Wesley Chapel
325501,US-0727,heliport,Niazi Heliport,28.27958,-80.6737833,14,US,US-FL,Merritt Island
26282,XS59,small_airport,Mellon Ranch Airport,28.28079987,-97.21140289,38,US,US-TX,Refugio
17230,FA40,small_airport,Hidden Lake Airport,28.28249931,-82.64569855,30,US,US-FL,New Port Richey
15546,97TX,small_airport,San Pedro Ranch Airport,28.28359985,-100.0670013,710,US,US-TX,Carrizo Springs
336139,US-1643,small_airport,O'Connor TJ Field,28.287301,-97.257929,,US,US-TX,Refugio
11029,43FD,seaplane_base,Cole's Seaplane Base,28.28773,-81.385705,53,US,US-FL,Kissimmee
17209,FA17,seaplane_base,Kissimmee Seaplane Base,28.289441,-81.404995,53,US,US-FL,Kissimmee
20187,KISM,medium_airport,Kissimmee Gateway Airport,28.28980064,-81.43710327,82,US,US-FL,Orlando
20925,KRFG,small_airport,Rooke Field,28.2936,-97.322998,56,US,US-TX,Refugio
7756,12FD,heliport,Osceola Regional Medical Center Heliport,28.298854,-81.409872,59,US,US-FL,Kissimmee
8828,21FA,small_airport,Rockledge Airport,28.2990861,-80.7207806,27,US,US-FL,Rockledge
15630,99TX,small_airport,Briggs Ranch Airport,28.3003006,-99.56700134,520,US,US-TX,Catarina
24854,TE46,heliport,Refugio County Memorial Hospital Heliport,28.306522,-97.280551,50,US,US-TX,Refugio
338704,53FA,heliport,Pasco Sheriff's Office Heliport,28.308027,-82.48688,79,US,US-FL,Land o ' Lakes
336235,US-1691,small_airport,San Ysidro Ranch Airport,28.311446,-99.707129,,US,US-TX,Catarina
8286,1FL1,heliport,Orlando Helicenter,28.312135,-81.46594,75,US,US-FL,Kissimmee
8694,1TS7,heliport,Cig 804 Heliport,28.31360054,-97.04550171,24,US,US-TX,Refugio
14675,85FD,heliport,AdventHealth Kissimmee Heliport,28.315393,-81.405979,81,US,US-FL,Kissimmee
24766,TA58,small_airport,Rancho Encantado Airport,28.3214,-99.449997,550,US,US-TX,Cotulla
313978,MGI,closed,Matagorda Island Air Force Base,28.323,-96.464,7,US,US-TX,Port O'Connor
45345,77FL,heliport,AdventHealth Celebration Heliport,28.329336,-81.54285,92,US,US-FL,Celebration
21388,KX05,small_airport,Pilot Country Airport,28.33029938,-82.49649811,80,US,US-FL,Brooksville
330169,US-1066,heliport,Westgate Villas Helipad,28.331455,-81.593336,112,US,US-FL,Kissimmee
45357,FA78,seaplane_base,Robinestte Seaplane Base,28.333,-81.25,58,US,US-FL,St Cloud
13238,6FA8,closed,Orlando Sun Resort Heliport,28.333225,-81.536381,90,US,US-FL,Kissimmee
10179,36FA,heliport,International Heli-Tours Heliport,28.333462,-81.487988,85,US,US-FL,Kissimmee
17325,FD54,heliport,Orlando Helitours Heliport,28.3345,-81.503765,80,US,US-FL,Kissimmee
14909,8FD4,heliport,Rockledge Regional Medical Center Heliport,28.334695,-80.723363,100,US,US-FL,Rockledge
347388,US-5049,closed,Quintana Airport,28.33764,-97.14834,42,US,US-TX,Refugio
17238,FA48,heliport,Four Points Sheraton Lakeside Heliport,28.33950043,-81.59539795,110,US,US-FL,Kissimmee
331123,US-1112,heliport,Orlando Health ER & Medical Pavilion Heliport,28.339807,-81.395217,91,US,US-FL,Kissimmee
19532,KCOI,small_airport,Merritt Island Airport,28.34160042,-80.6855011,6,US,US-FL,Merritt Island
45351,3FA2,heliport,Fly High Heliport,28.345833,-81.664444,115,US,US-FL,Kissimmee
345375,US-4443,heliport,AdventHealth Dade City Heliport,28.3474,-82.20031,83,US,US-FL,Dade City
329273,US-0965,heliport,South Campus South Lake Hospital Heliport,28.351187,-81.673346,141,US,US-FL,Clermont
11071,44FD,closed,Epcot Center Ultralightport,28.35309982,-81.54699707,102,US,US-FL,Lake Buena Vista
24791,TA84,small_airport,Miller Ranch Airport,28.35499954,-99.93319702,750,US,US-TX,Carrizo Springs
342409,US-3374,closed,World Drive Emergency Landing Strip,28.35731,-81.56408,97,US,US-FL,Lake Buena Vista
8293,1FL8,heliport,Cape Canaveral Hospital Heliport,28.36109924,-80.62220001,6,US,US-FL,Cocoa Beach
18730,KBEA,small_airport,Beeville Municipal Airport,28.36190033,-97.79100037,268,US,US-TX,Beeville
17402,FL32,heliport,Regional Medical Center Bayonet Point Heliport,28.362387,-82.688032,10,US,US-FL,Hudson
8753,1XA2,small_airport,Chase Field Industrial Airport,28.362444,-97.661917,190,US,US-TX,Beeville
19142,K8T6,small_airport,Live Oak County Airport,28.362801,-98.116501,129,US,US-TX,George West
322646,US-0504,heliport,Orlando VA Medical Center Heliport,28.364,-81.2751917,96,US,US-FL,Orlando
343443,68FA,heliport,UCF Lake Nona Medical Center Heliport,28.36673,-81.286608,87,US,US-FL,Orlando
46052,US-0139,small_airport,Flying Hare Airport,28.36829948,-98.8934021,460,US,US-TX,Fowlerton
339097,US-2641,balloonport,Characters in Flight Balloonport,28.37096,-81.51947,,US,US-FL,Lake Buena Vista
337987,US-2161,small_airport,Wildlife/Stroud Airport,28.374943,-100.006131,853,US,US-TX,Catarina
325690,US-0760,seaplane_base,Moon Landing Seaplane Base,28.376722,-81.178136,61,US,US-FL,Orlando
342461,6FA5,heliport,Nemours Childrens Hospital Heliport,28.376817,-81.274871,89,US,US-FL,Orlando
339098,US-2642,closed,Airlando Airpark,28.37995,-81.52156,,US,US-FL,Lake Buena Vista
17312,FD41,heliport,Grand Cypress Resort Heliport,28.38149,-81.515508,105,US,US-FL,Orlando
343301,US-3744,small_airport,Kehley Ranch Airport,28.38274,-98.88951,472,US,US-TX,Fowlerton
336049,US-1600,heliport,Heli-Partners I-Drive Heliport,28.384406,-81.48515,112,US,US-FL,Orlando
338794,US-2455,balloonport,Eagle Pass TARS Site,28.38537,-100.28594,709,US,US-TX,Eagle Pass
322215,7FA5,heliport,Premium Heliport,28.389166,-81.488496,128,US,US-FL,Orlando
6494,PM64,closed,Kure Airport,28.389278,-178.29715,12,US,US-HI,Kure Atoll
343828,US-3859,small_airport,Stumberg Ranch Airport,28.39036,-99.64245,593,US,US-TX,Catarina
337588,US-2038,heliport,Lake Willis Heliport,28.394345,-81.476321,108,US,US-FL,Orlando
8770,1XS9,closed,Beefmaster's Best Airport,28.395599,-98.220802,250,US,US-TX,Three Rivers
327233,US-0855,seaplane_base,Ritz Carlton Grande Lakes Seaplane Base,28.396662,-81.433781,80,US,US-FL,Orlando
15331,91TX,small_airport,Paisano Ranch Airport,28.39690018,-98.3628006,235,US,US-TX,Calliham
302473,DWS,closed,Walt Disney World Airport / Lake Buena Vista STOLport,28.399444,-81.571278,94,US,US-FL,Walt Disney World
7636,0XS0,small_airport,Diamond H Ranch Airport,28.40029907,-99.55870056,511,US,US-TX,Catarina
14821,89FD,heliport,Tranquility Pad Heliport,28.40139961,-82.24259949,38,US,US-FL,Dade City
345376,US-4444,heliport,AdventHealth Lake Nona Heliport,28.40346,-81.24584,82,US,US-FL,Orlando
321980,FA90,heliport,Port Canaveral Heliport,28.4052556,-80.6186694,10,US,US-FL,Port Canaveral
13248,6FL0,small_airport,Seminole Lake Gliderport,28.40579987,-81.83789825,120,US,US-FL,Groveland
322880,US-0532,heliport,Christus Spohn Hospital Beeville Heliport,28.406698,-97.730864,221,US,US-TX,Beeville
12348,5FL0,small_airport,Dusty Airpatch Airport,28.41309929,-82.2233963,120,US,US-FL,Dade City
9397,2FL5,closed,"Brooksville International Airways, Inc. Heliport",28.423901,-81.459702,95,US,US-FL,Orlando
350328,US-5957,closed,Travland Airport,28.42477,-97.76362,290,US,US-TX,Beeville
345147,US-4347,small_airport,La Salle Ranch Airport,28.42738,-96.45515,8,US,US-TX,Port O'Connor
26206,XA81,heliport,Midstream Port O'Connor Heliport,28.427485,-96.449928,7,US,US-TX,Port O'Connor
3670,KMCO,large_airport,Orlando International Airport,28.42939949,-81.30899811,96,US,US-FL,Orlando
17367,FD99,heliport,Dr. P. Phillips Hospital Heliport,28.429591,-81.477099,98,US,US-FL,Orlando
26270,XS46,closed,Port O'Connor Private Airport,28.430002,-96.44299,8,US,US-TX,Port O'Connor
326257,FA91,heliport,Orange County Convention Center Heliport,28.430844,-81.456296,92,US,US-FL,Orlando
15558,98FL,seaplane_base,Sand Lake Seaplane Base,28.43359947,-81.49150085,90,US,US-FL,Orlando/Buena Vista
338777,US-2438,heliport,US Coast Guard Station Port O'Connor Heliport,28.43417,-96.42738,,US,US-TX,Port O'Connor
341546,US-3267,small_airport,Quintanilla Ranch Airport,28.43503,-98.51429,344,US,US-TX,Tilden
9389,2FD7,heliport,Air Orlando Heliport,28.4356,-81.473099,120,US,US-FL,Orlando
341173,US-3185,closed,Sand Hollow Airport,28.437,-98.10201,,US,US-TX,Oakville
344092,US-3921,heliport,Bayfront Health Spring Hill Heliport,28.4378,-82.53896,47,US,US-FL,Spring Hill
14388,7TA6,closed,PHI Heliport,28.439699,-96.434998,4,US,US-TX,Port O'Connor
25095,TS79,closed,Air Logistics Heliport,28.439699,-96.419702,5,US,US-TX,Port O'Connor
12153,57TX,small_airport,Brown Ranch Airport,28.44190025,-97.80439758,325,US,US-TX,Beeville
15335,91XS,closed,HHI-Port O'Connor Heliport,28.442499,-96.4253,7,US,US-TX,Port O'Connor
26310,XS87,heliport,Industrial Helicopters Inc Heliport,28.44499969,-96.44830322,10,US,US-TX,Port O'Connor
24866,TE58,small_airport,Terminal D Ranch Airport,28.4451,-98.0394,260,US,US-TX,Beeville
13825,74TA,closed,Glass Ranch Airport,28.445138,-100.156431,800,US,US-TX,Carrizo Springs
352426,US-6440,small_airport,Daniel Flying Services Airport,28.44536,-96.89783,39,US,US-TX,Tivoli
10913,40FA,closed,Sequiam Heliport,28.447201,-81.369202,95,US,US-FL,Orlando
346974,FA13,seaplane_base,Treasure Lagoon Seaplane Base,28.4475,-80.722361,0,US,US-FL,Cocoa
345374,US-4442,heliport,Osowaw Boulevard Residential Helipad,28.44989,-82.66402,5,US,US-FL,Spring Hill
17210,FA18,small_airport,Devils Garden Strip,28.4510994,-81.00029755,18,US,US-FL,La Belle
10452,3FL1,small_airport,Two J's Flying Ranch Airport,28.45249939,-82.20780182,60,US,US-FL,Dade City
17324,FD53,small_airport,Cub Haven Airport,28.4533,-82.214996,70,US,US-FL,Dade City
19536,KCOT,small_airport,Cotulla-La Salle County Airport,28.45669937,-99.22029877,474,US,US-TX,Cotulla
329978,US-1054,heliport,Orlando Health Central Horizons West Heliport,28.45803,-81.632976,106,US,US-FL,Winter Garden
